     2.10           OBSERVATION DATA    G (GPS)             RINEX VERSION / TYPE
teqc  2002Mar14                         20040202 02:07:05UTCPGM / RUN BY / DATE
LOVO.0                                                      MARKER NAME
108638.0                                                    MARKER NUMBER
SWEPOS              LMV                                     OBSERVER / AGENCY
201                 ASHTECH UZ-12       UFB5                REC # / TYPE / VERS
486                 ASH700936D_M    OSOD                    ANT # / TYPE
  3104219.4530   998383.9820  5463290.5080                  APPROX POSITION XYZ
        0.0710        0.0000        0.0000                  ANTENNA: DELTA H/E/N
     1     1                                                WAVELENGTH FACT L1/2
     7    C1    L1    L2    P1    P2    D1    D2            # / TYPES OF OBSERV
    15.0000                                                 INTERVAL
Forced Modulo Decimation to 15 seconds                      COMMENT
  2004     2     2     1     0    0.0000000     GPS         TIME OF FIRST OBS
  2004     2     2     1    59   45.0000000     GPS         TIME OF LAST OBS
MSWin2000|IAx86-PII|bcc32 5.0|MSWin95/98/NT/2000|486/DX+    COMMENT
teqc  2002Mar14                         20040202 02:07:00UTCCOMMENT
IMoS GFileSrv 3.32  LMV                 02.02.2004          COMMENT
                                                            END OF HEADER
 04  2  2  1  0  0.0000000  0 12G24G13G 8G21G29G26G10G17G 2G28G 3G27
  25001257.939 3  -3240782.381 3  -2477390.27041  25001256.67943  25001263.55241
     -3326.175       -2591.814
  23106629.672 3 -12188598.444 3  -9438884.30442  23106630.26943  23106632.40442
     -3249.560       -2532.122
  20664230.640 4 -27083620.911 4 -21043552.60142  20664230.28544  20664233.24942
      1668.628        1300.232
  24835458.607 3  -1852700.687 3  -1409814.31741  24835459.14243  24835461.18641
      2256.893        1758.620
  23250718.908 3  -9408614.302 3  -7282391.67142  23250719.14843  23250721.22342
      3046.074        2373.562
  24278146.750 3  -2425988.004 3  -1834803.80441  24278147.40443  24278147.28641
      3719.047        2897.966
  21075047.746 4 -22766749.109 4 -17690390.38942  21075046.64344  21075050.17642
       107.458          83.738
  23040156.049 3 -12703575.980 3  -9875544.72442  23040156.09643  23040158.59142
     -2015.434       -1570.458
  25021426.334 3  -3642075.938 3  -2794521.62041  25021425.82543  25021430.11341
     -2570.057       -2002.638
  24944090.432 3   -516866.017 3   -356300.57841  24944089.65443  24944093.09541
      3702.248        2884.860
  24444981.849 3  -4367335.195 3  -3375771.73741  24444981.72543  24444985.50941
      1216.773         948.128
  20946851.223 4 -21723060.133 4 -16870512.80742  20946850.74844  20946853.61742
      -970.759        -756.424
 04  2  2  1  0 15.0000000  0 12G24G13G 8G21G29G26G10G17G 2G28G 3G27
  25010757.633 3  -3190865.636 3  -2438494.10141  25010759.38243  25010762.86941
     -3328.911       -2593.958
  23115909.944 3 -12139829.614 3  -9400882.63442  23115910.84143  23115911.78242
     -3252.759       -2534.667
  20659480.236 4 -27108585.937 4 -21063005.86742  20659479.73544  20659482.66842
      1660.202        1293.669
  24829027.469 3  -1886494.577 3  -1436147.20941  24829028.24543  24829028.86341
      2249.109        1752.538
  23242029.380 3  -9454282.302 3  -7317977.13642  23242029.55243  23242030.38842
      3043.425        2371.503
  24267532.533 3  -2481764.433 3  -1878265.97441  24267532.69743  24267532.80141
      3717.392        2896.659
  21074755.738 3 -22768282.363 3 -17691585.13642  21074755.03843  21074758.44242
        97.245          75.777
  23045922.805 3 -12673271.792 3  -9851931.09342  23045922.36343  23045925.72042
     -2024.376       -1577.426
  25028767.917 3  -3603491.226 3  -2764455.61041  25028767.47043  25028771.43541
     -2574.424       -2006.043
  24933523.806 3   -572390.756 3   -399566.60741  24933523.96343  24933527.22641
      3701.267        2884.110
  24441522.323 3  -4385521.899 3  -3389943.19341  24441522.27743  24441523.96241
      1208.485         941.697
  20949631.835 4 -21708447.286 4 -16859126.17042  20949631.65044  20949634.16942
      -977.584        -761.765
 04  2  2  1  0 30.0000000  0 12G24G13G 8G21G29G26G10G17G 2G28G 3G27
  25020262.282 3  -3140921.194 3  -2399576.36641  25020261.94143  25020267.44241
     -3331.541       -2595.996
  23125200.286 3 -12091009.370 3  -9362840.90542  23125201.40243  23125204.00342
     -3256.907       -2537.829
  20654752.933 4 -27133426.369 4 -21082362.04742  20654752.90844  20654755.58642
      1651.365        1286.769
  24822619.150 3  -1920171.877 3  -1462389.24841  24822620.48443  24822621.61741
      2241.053        1746.279
  23233347.396 3  -9499906.832 3  -7353528.72442  23233347.12943  23233349.83542
      3039.714        2368.611
  24256923.567 3  -2537513.665 3  -1921706.95341  24256923.83243  24256925.25241
      3715.219        2894.966
  21074493.113 4 -22769662.216 4 -17692660.35142  21074492.54144  21074495.86742
        86.393          67.318
  23051715.012 3 -12642840.507 3  -9828218.41242  23051714.24843  23051716.11042
     -2033.679       -1584.697
  25036122.521 3  -3564838.243 3  -2734336.40041  25036121.82743  25036126.64141
     -2579.597       -2010.085
  24922961.192 3   -627902.865 3   -442822.79341  24922960.82743  24922963.95841
      3699.987        2883.100
  24438086.806 3  -4403576.324 3  -3404011.57241  24438086.85243  24438088.96841
      1198.556         933.946
  20952431.951 4 -21693731.512 4 -16847659.33342  20952431.86044  20952434.54342
      -984.984        -767.522
 04  2  2  1  0 45.0000000  0 12G24G13G 8G21G29G26G10G17G 2G28G 3G27
  25029772.483 3  -3090949.710 3  -2360637.56441  25029770.74843  25029777.61541
     -3332.098       -2596.442
  23134500.882 3 -12042137.938 3  -9324759.27342  23134501.63643  23134503.31442
     -3259.768       -2540.086
  20650049.815 4 -27158142.159 4 -21101621.09942  20650049.49944  20650052.42142
      1643.692        1280.779
  24816232.577 3  -1953732.282 3  -1488540.16041  24816232.77943  24816235.28041
      2233.784        1740.603
  23224673.239 3  -9545487.698 3  -7389046.28342  23224673.53943  23224675.84142
      3037.328        2366.746
  24246320.177 3  -2593235.705 3  -1965126.71741  24246319.87743  24246324.34441
      3714.073        2894.075
  21074259.873 4 -22770888.683 4 -17693616.04242  21074259.28444  21074262.71142
        76.803          59.837
  23057529.815 3 -12612282.235 3  -9804406.77042  23057528.72243  23057531.89242
     -2041.446       -1590.734
  25043491.119 3  -3526117.272 3  -2704164.23341  25043489.87843  25043496.83041
     -2583.702       -2013.271
  24912400.059 3   -683402.146 3   -486068.96941  24912399.72043  24912401.77241
      3699.801        2882.964
  24434675.652 3  -4421498.424 3  -3417976.86241  24434675.99243  24434678.16541
      1190.403         927.583
  20955252.061 4 -21678912.846 4 -16836112.31642  20955251.86344  20955254.61442
      -991.328        -772.478
 04  2  2  1  1  0.0000000  0 12G24G13G 8G21G29G26G10G17G 2G28G 3G27
  25039286.117 3  -3040951.145 3  -2321677.66341  25039282.94643  25039288.38241
     -3334.426       -2598.247
  23143809.941 3 -11993215.459 3  -9286637.86842  23143811.05743  23143813.67742
     -3263.349       -2542.871
  20645370.274 4 -27182733.040 4 -21120782.81842  20645369.91844  20645372.83942
      1635.228        1274.206
  24809869.951 3  -1987175.496 3  -1514599.77841  24809871.09543  24809871.00041
      2225.235        1733.938
  23216007.086 3  -9591024.649 3  -7424529.62942  23216007.29243  23216010.31742
      3034.228        2364.319
  24235721.967 3  -2648930.198 3  -2008525.01041  24235721.56943  24235724.70041
      3712.042        2892.495
  21074055.943 4 -22771961.617 4 -17694452.09942  21074055.33044  21074058.59242
        66.245          51.615
  23063369.266 3 -12581597.265 3  -9780496.40142  23063369.00943  23063371.52342
     -2050.033       -1597.437
  25050870.739 3  -3487328.358 3  -2673939.13141  25050872.22643  25050876.68041
     -2588.281       -2016.850
  24901840.531 3   -738888.083 3   -529304.77841  24901839.95543  24901843.24341
      3698.446        2881.900
  24431291.200 3  -4439287.848 3  -3431838.77141  24431290.69843  24431293.90141
      1181.466         920.623
  20958091.327 4 -21663991.390 4 -16824485.20342  20958091.34244  20958094.10142
      -998.305        -777.894
 04  2  2  1  1 15.0000000  0 12G24G13G 8G21G29G26G10G17G 2G28G 3G27
  25048804.922 3  -2990926.137 3  -2282697.15341  25048803.70043  25048810.07741
     -3335.771       -2599.309
  23153129.253 3 -11944242.226 3  -9248476.91042  23153129.96143  23153132.05242
     -3267.022       -2545.763
  20640714.894 4 -27207198.982 4 -21139847.18142  20640714.30544  20640717.11142
      1626.473        1267.369
  24803527.597 3  -2020501.240 3  -1540567.91041  24803527.91843  24803528.03841
      2217.171        1727.670
  23207351.224 3  -9636517.511 3  -7459978.60042  23207351.26043  23207353.88042
      3030.895        2361.726
  24225128.746 3  -2704596.932 3  -2051901.68641  24225129.91143  24225131.77141
      3709.803        2890.764
  21073880.896 4 -22772881.081 4 -17695168.57142  21073880.22744  21073883.38042
        55.756          43.431
  23069232.416 3 -12550786.057 3  -9756487.67042  23069231.39643  23069234.86242
     -2058.879       -1604.339
  25058265.204 3  -3448471.883 3  -2643661.38941  25058267.10743  25058270.13941
     -2593.335       -2020.788
  24891285.597 3   -794360.528 3   -572530.05941  24891284.61443  24891287.20841
      3697.113        2880.860
  24427931.372 3  -4456944.480 3  -3445597.21241  24427931.14043  24427934.55641
      1172.070         913.293
  20960950.183 4 -21648967.264 4 -16812778.09042  20960950.00844  20960952.91842
     -1005.502        -783.518
 04  2  2  1  1 30.0000000  0 12G24G13G 8G21G29G26G10G17G 2G28G 3G27
  25058328.606 3  -2940874.857 3  -2243696.18741  25058331.69743  25058335.84441
     -3337.278       -2600.456
  23162458.312 3 -11895218.256 3  -9210276.43142  23162458.44243  23162459.61142
     -3270.012       -2548.082
  20636083.006 4 -27231539.632 4 -21158813.91342  20636082.58544  20636085.50342
      1618.456        1261.129
  24797207.905 3  -2053709.318 3  -1566444.34941  24797209.31143  24797209.81941
      2209.775        1721.908
  23198702.236 3  -9681966.037 3  -7495393.02442  23198702.70543  23198704.98042
      3028.511        2359.874
  24214540.408 3  -2760235.590 3  -2095256.47541  24214541.18243  24214543.10841
      3708.189        2889.504
  21073735.125 4 -22773646.885 4 -17695765.30642  21073734.48544  21073737.57542
        45.982          35.825
  23075120.225 3 -12519848.646 3  -9732380.61242  23075119.92243  23075123.36642
     -2066.924       -1610.588
  25065674.342 3  -3409548.037 3  -2613331.15641  25065674.29243  25065677.22341
     -2596.970       -2023.602
  24880731.616 3   -849819.182 3   -615744.60641  24880729.57443  24880732.38941
      3696.799        2880.623
  24424596.005 3  -4474467.982 3  -3459251.89441  24424596.43043  24424599.77741
      1163.737         906.803
  20963828.772 4 -21633840.610 4 -16800991.08242  20963828.84844  20963831.49942
     -1011.911        -788.507
 04  2  2  1  1 45.0000000  0 12G24G13G 8G21G29G26G10G17G 2G28G 3G27
  25067858.929 3  -2890797.811 3  -2204675.16441  25067856.10243  25067866.26141
     -3339.319       -2602.067
  23171797.047 3 -11846143.818 3  -9172036.61642  23171796.00043  23171798.39742
     -3273.184       -2550.534
  20631474.812 4 -27255755.074 4 -21177683.07742  20631474.49344  20631477.13142
      1610.367        1254.828
  24790911.018 3  -2086799.367 3  -1592228.82741  24790910.67543  24790914.65341
      2202.112        1715.937
  23190062.501 3  -9727370.278 3  -7530772.96342  23190062.48743  23190063.90642
      3025.669        2357.675
  24203958.483 3  -2815846.121 3  -2138589.35241  24203959.38443  24203960.28241
      3706.855        2888.458
  21073618.558 4 -22774259.121 4 -17696242.38042  21073617.94144  21073620.98642
        35.879          27.963
  23081031.296 3 -12488785.629 3  -9708175.69042  23081030.82543  23081034.43642
     -2074.804       -1616.728
  25073094.596 3  -3370557.209 3  -2582948.71541  25073093.28143  25073096.35241
     -2601.351       -2027.033
  24870180.409 3   -905263.804 3   -658948.21741  24870180.06643  24870182.71341
      3696.198        2880.154
  24421286.658 3  -4491858.285 3  -3472802.78941  24421287.63643  24421290.05141
      1155.082         900.061
  20966726.815 4 -21618611.632 4 -16789124.34542  20966726.70344  20966729.49642
     -1018.474        -793.615
 04  2  2  1  2  0.0000000  0 12G24G13G 8G21G29G26G10G17G 2G28G 3G27
  25077392.652 3  -2840695.161 3  -2165634.16341  25077392.61443  25077397.60241
     -3341.243       -2603.602
  23181144.528 3 -11797019.044 3  -9133757.58542  23181145.50143  23181146.73442
     -3276.476       -2553.100
  20626890.508 4 -27279845.202 4 -21196454.59342  20626889.93444  20626892.99142
      1602.031        1248.337
  24784637.361 3  -2119770.892 3  -1617920.93741  24784636.70043  24784637.81241
      2194.442        1709.946
  23181430.329 3  -9772729.880 3  -7566118.10742  23181430.09743  23181432.87942
      3022.592        2355.262
  24193382.209 3  -2871428.240 3  -2181900.08541  24193383.09143  24193385.02141
      3704.749        2886.816
  21073531.521 4 -22774717.562 4 -17696599.60942  21073530.84944  21073533.80142
        25.695          20.026
  23086965.138 3 -12457597.215 3  -9683873.05142  23086964.67543  23086968.60142
     -2083.088       -1623.180
  25080527.104 3  -3331499.569 3  -2552514.18341  25080526.31343  25080530.18141
     -2606.057       -2030.690
  24859632.004 3   -960693.883 3   -702140.48041  24859632.57643  24859635.15741
      3695.138        2879.319
  24418003.773 3  -4509115.067 3  -3486249.64741  24418004.11343  24418006.69241
      1146.241         893.184
  20969644.634 4 -21603280.198 4 -16777177.77442  20969644.27744  20969646.66042
     -1025.288        -798.932
 04  2  2  1  2 15.0000000  0 12G24G13G 8G21G29G26G10G17G 2G28G 3G27
  25086931.692 3  -2790567.354 3  -2126573.55841  25086933.22243  25086938.27341
     -3343.086       -2605.025
  23190502.396 3 -11747844.071 3  -9095439.42242  23190502.92543  23190505.28542
     -3280.134       -2555.938
  20622330.383 4 -27303809.717 4 -21215128.23542  20622329.80244  20622332.77842
      1593.462        1241.660
  24778386.099 3  -2152623.763 3  -1643520.62341  24778385.08143  24778386.11141
      2186.742        1703.958
  23172806.982 3  -9818044.785 3  -7601428.42242  23172807.33143  23172810.17942
      3019.499        2352.864
  24182811.327 3  -2926981.806 3  -2225188.57341  24182810.86143  24182813.65041
      3702.645        2885.182
  21073473.358 4 -22775022.304 4 -17696837.07942  21073472.91944  21073475.65842
        15.151          11.807
  23092923.792 3 -12426283.686 3  -9659472.92842  23092923.90143  23092927.32542
     -2091.850       -1630.008
  25087971.801 3  -3292375.397 3  -2522027.82241  25087971.05343  25087973.90041
     -2610.456       -2034.128
  24849087.460 3  -1016109.188 3   -745321.24541  24849086.21543  24849090.70441
      3693.318        2877.902
  24414744.885 3  -4526238.266 3  -3499592.43941  24414744.24743  24414747.03041
      1137.012         885.982
  20972581.381 4 -21587846.622 4 -16765151.60742  20972581.34544  20972583.47042
     -1032.329        -804.416
 04  2  2  1  2 30.0000000  0 12G24G13G 8G21G29G26G10G17G 2G28G 3G27
  25096474.694 2  -2740414.884 2  -2087493.73641  25096476.74142  25096484.48841
     -3343.080       -2604.986
  23199869.797 3 -11698619.191 3  -9057082.38242  23199869.85243  23199872.04742
     -3282.427       -2557.752
  20617793.806 4 -27327648.686 4 -21233704.04942  20617793.57144  20617796.46742
      1586.010        1235.859
  24772156.396 3  -2185357.933 3  -1669027.75441  24772156.13443  24772158.73741
      2179.133        1698.037
  23164192.724 3  -9863314.749 3  -7636703.71742  23164192.95843  23164195.56142
      3017.331        2351.177
  24172244.053 3  -2982506.736 3  -2268454.73241  24172244.61043  24172246.74741
      3701.645        2884.403
  21073444.931 4 -22775173.360 4 -17696954.78442  21073444.07744  21073446.90442
         5.915           4.610
  23098907.180 3 -12394845.411 3  -9634975.59742  23098906.88243  23098910.80742
     -2099.142       -1635.695
  25095429.681 3  -3253184.938 3  -2491489.81241  25095429.06443  25095432.18741
     -2614.099       -2036.970
  24838545.031 3  -1071509.446 3   -788490.28541  24838544.39543  24838546.77541
      3693.861        2878.328
  24411512.367 3  -4543227.654 3  -3512830.91941  24411512.21543  24411513.94741
      1128.849         879.625
  20975537.552 4 -21572311.049 4 -16753045.96442  20975537.62244  20975540.15542
     -1038.218        -809.001
 04  2  2  1  2 45.0000000  0 12G24G13G 8G21G29G26G10G17G 2G28G 3G27
  25106024.265 2  -2690237.810 2  -2048394.77141  25106028.04442  25106030.18141
     -3345.905       -2607.197
  23209247.050 3 -11649344.419 3  -9018686.46542  23209247.03343  23209248.33742
     -3286.610       -2560.984
  20613281.152 4 -27351361.818 4 -21252181.80542  20613280.74444  20613283.86042
      1576.667        1228.564
  24765950.310 3  -2217972.858 3  -1694441.95341  24765950.60943  24765953.98841
      2170.523        1691.327
  23155586.722 3  -9908539.555 3  -7671943.83342  23155586.64043  23155588.81742
      3013.578        2348.251
  24161684.386 3  -3038002.506 3  -2311698.18341  24161684.82543  24161685.80741
      3698.831        2882.217
  21073445.570 4 -22775170.633 4 -17696952.66142  21073444.70644  21073447.66942
        -5.287          -4.115
  23104913.456 3 -12363282.624 3  -9610381.23242  23104913.08443  23104917.15642
     -2108.296       -1642.833
  25102899.693 3  -3213928.393 3  -2460900.29441  25102898.33143  25102902.24541
     -2619.450       -2041.128
  24828005.324 3  -1126894.274 3   -831647.30341  24828006.14743  24828009.26541
      3692.122        2876.977
  24408305.615 3  -4560082.952 3  -3525964.91041  24408305.01643  24408308.78841
      1119.314         872.194
  20978513.665 4 -21556673.472 4 -16740860.84042  20978513.66344  20978515.75542
     -1045.929        -815.005
 04  2  2  1  3  0.0000000  0 12G24G13G 8G21G29G26G10G17G 2G28G 3G27
  25115576.431 2  -2640036.739 2  -2009277.09541  25115578.83142  25115582.82641
     -3347.746       -2608.652
  23218633.127 3 -11600020.142 3  -8980251.97142  23218632.82043  23218634.71942
     -3289.835       -2563.525
  20608792.738 4 -27374949.073 4 -21270561.47242  20608792.67444  20608795.44142
      1568.407        1222.136
  24759766.517 3  -2250468.426 3  -1719763.16741  24759766.67943  24759768.41041
      2162.691        1685.228
  23146989.639 3  -9953718.991 3  -7707148.59442  23146988.78943  23146990.78342
      3010.433        2345.801
  24151129.746 3  -3093469.063 3  -2354918.89541  24151129.00643  24151131.07341
      3696.841        2880.660
  21073475.169 4 -22775014.139 4 -17696830.72142  21073474.63644  21073477.43442
       -15.414         -12.012
  23110943.067 3 -12331595.617 3  -9585690.07342  23110941.51843  23110946.33342
     -2116.686       -1649.360
  25110382.484 3  -3174606.036 3  -2430259.50541  25110381.99243  25110385.70041
     -2623.667       -2044.415
  24817468.836 3  -1182263.401 3   -874792.08741  24817469.61343  24817473.14441
      3690.616        2875.806
  24405122.486 3  -4576804.070 3  -3538994.35941  24405122.32843  24405124.53341
      1110.512         865.330
  20981508.628 4 -21540934.020 4 -16728596.33042  20981508.34544  20981511.01442
     -1052.542        -820.165
 04  2  2  1  3 15.0000000  0 12G24G13G 8G21G29G26G10G17G 2G28G 3G27
  25125135.198 2  -2589812.068 2  -1970140.99941  25125133.89542  25125139.83141
     -3349.631       -2610.115
  23228028.445 3 -11550646.457 3  -8941778.98942  23228028.50243  23228029.99342
     -3293.268       -2566.174
  20604328.521 4 -27398410.429 4 -21288843.04042  20604327.85844  20604330.68142
      1559.832        1215.449
  24753606.385 3  -2282844.218 3  -1744991.08341  24753607.22143  24753608.04741
      2154.328        1678.700
  23138400.822 3  -9998853.012 3  -7742317.96842  23138400.91843  23138402.62642
      3007.367        2343.425
  24140579.994 3  -3148906.398 3  -2398116.82841  24140579.77043  24140581.49041
      3694.674        2878.975
  21073534.299 4 -22774703.948 4 -17696589.01442  21073533.53544  21073536.39442
       -25.829         -20.127
  23116996.476 3 -12299784.834 3  -9560902.45342  23116995.66543  23116999.44142
     -2124.759       -1655.656
  25117877.522 3  -3135218.208 3  -2399567.71141  25117876.81343  25117881.05441
     -2627.853       -2047.677
  24806935.600 3  -1237616.578 3   -917924.42541  24806935.41143  24806939.44141
      3689.681        2875.088
  24401966.638 3  -4593390.813 3  -3551919.10041  24401965.32843  24401968.64741
      1101.030         857.936
  20984523.102 4 -21525092.979 4 -16716252.66242  20984522.98644  20984525.47742
     -1059.565        -825.641
 04  2  2  1  3 30.0000000  0 12G24G13G 8G21G29G26G10G17G 2G28G 3G27
  25134698.568 3  -2539564.061 3  -1930986.72341  25134695.93143  25134703.17341
     -3350.711       -2610.929
  23237433.567 3 -11501223.629 3  -8903267.71742  23237433.40343  23237435.79042
     -3296.446       -2568.646
  20599887.833 4 -27421745.589 4 -21307026.27242  20599887.62744  20599890.14642
      1551.413        1208.886
  24747468.218 3  -2315099.881 3  -1770125.39641  24747468.20543  24747469.05441
      2146.277        1672.421
  23129820.728 3 -10043941.304 3  -7777451.71242  23129820.28443  23129822.73342
      3004.250        2340.974
  24130035.981 3  -3204314.047 3  -2441291.63641  24130036.28743  24130037.95741
      3692.535        2877.305
  21073622.358 4 -22774239.799 4 -17696227.34042  21073621.75844  21073624.78042
       -36.174         -28.186
  23123073.491 3 -12267850.508 3  -9536018.56142  23123072.63243  23123076.38342
     -2133.170       -1662.207
  25125384.057 3  -3095765.049 3  -2368824.99841  25125384.97443  25125388.34041
     -2632.441       -2051.247
  24796406.004 3  -1292953.398 3   -961044.01641  24796406.06343  24796409.20141
      3688.797        2874.383
  24398834.574 3  -4609842.930 3  -3564738.94341  24398835.34543  24398837.30641
      1092.132         851.012
  20987556.559 4 -21509150.339 4 -16703829.82442  20987556.48544  20987559.24242
     -1066.310        -830.887
 04  2  2  1  3 45.0000000  0 12G24G13G 8G21G29G26G10G17G 2G28G 3G27
  25144265.114 3  -2489293.074 3  -1891814.54341  25144263.99443  25144268.41641
     -3352.331       -2612.194
  23246847.307 3 -11451751.627 3  -8864718.11542  23246847.17543  23246849.15042
     -3299.730       -2571.245
  20595471.332 4 -27444954.548 4 -21325111.16942  20595470.87944  20595473.78542
      1543.154        1202.470
  24741352.611 3  -2347235.253 3  -1795165.94041  24741351.28943  24741353.11141
      2138.248        1666.174
  23121250.359 3 -10088983.854 3  -7812549.80442  23121250.27643  23121251.93842
      3001.317        2338.701
  24119497.680 3  -3259691.979 3  -2484443.28541  24119498.27943  24119498.49341
      3690.986        2876.097
  21073740.226 4 -22773621.697 4 -17695745.70542  21073739.30244  21073742.32642
       -46.178         -35.971
  23129172.749 3 -12235793.087 3  -9511038.77642  23129173.18843  23129176.24942
     -2141.462       -1668.660
  25132905.117 3  -3056246.889 3  -2338031.63141  25132904.68843  25132907.70241
     -2636.382       -2054.330
  24785878.895 3  -1348273.681 3  -1004150.74141  24785878.53543  24785881.81741
      3687.713        2873.547
  24395729.536 3  -4626160.256 3  -3577453.73241  24395730.34943  24395734.03241
      1083.426         844.220
  20990609.547 4 -21493106.322 4 -16691327.99042  20990609.50644  20990612.47842
     -1072.997        -836.092
 04  2  2  1  4  0.0000000  0 12G24G13G 8G21G29G26G10G17G 2G28G 3G27
  25153834.674 3  -2438999.252 3  -1852624.57341  25153831.99843  25153836.51141
     -3353.420       -2613.011
  23256270.579 3 -11402230.618 3  -8826130.32442  23256271.31543  23256271.35942
     -3303.081       -2573.838
  20591078.648 4 -27468037.005 4 -21343097.48842  20591078.32844  20591081.25642
      1534.546        1195.754
  24735257.922 3  -2379250.083 3  -1820112.55441  24735258.67943  24735261.76341
      2130.045        1659.773
  23112687.312 3 -10133980.231 3  -7847611.92242  23112687.47943  23112688.90642
      2998.073        2336.159
  24108964.617 3  -3315039.802 3  -2527571.46741  24108964.85943  24108966.85441
      3689.119        2874.643
  21073886.666 4 -22772849.488 4 -17695143.99142  21073886.20644  21073889.06842
       -56.721         -44.198
  23135296.639 3 -12203612.752 3  -9485963.22042  23135296.95843  23135298.63242
     -2149.544       -1674.975
  25140436.956 3  -3016663.866 3  -2307187.72241  25140438.63043  25140439.63041
     -2641.151       -2058.038
  24775355.257 3  -1403576.967 3  -1047244.20541  24775353.69443  24775358.08341
      3686.284        2872.425
  24392652.056 3  -4642342.492 3  -3590063.26341  24392650.91943  24392653.33241
      1074.202         837.053
  20993682.177 4 -21476960.885 4 -16678747.13042  20993681.83444  20993684.57642
     -1079.805        -841.406
 04  2  2  1  4 15.0000000  0 12G24G13G 8G21G29G26G10G17G 2G28G 3G27
  25163408.712 2  -2388683.025 2  -1813417.14641  25163406.94042  25163410.08241
     -3354.548       -2613.930
  23265703.057 3 -11352660.792 3  -8787504.49642  23265703.08643  23265706.40142
     -3306.437       -2576.456
  20586710.394 4 -27490992.908 4 -21360985.19742  20586710.21944  20586712.53142
      1525.950        1189.062
  24729191.206 3  -2411143.924 3  -1844964.89241  24729190.03343  24729191.04041
      2122.194        1653.660
  23104132.741 3 -10178930.435 3  -7882638.05742  23104132.80143  23104135.35442
      2994.832        2333.646
  24098437.834 3  -3370357.496 3  -2570676.18041  24098439.26443  24098440.80741
      3686.943        2872.951
  21074063.354 4 -22771923.388 4 -17694422.35842  21074062.61544  21074065.58242
       -67.074         -52.249
  23141443.759 3 -12171309.789 3  -9460792.11042  23141443.86343  23141446.05942
     -2157.622       -1681.258
  25147982.147 3  -2977016.317 3  -2276293.55441  25147982.14643  25147986.43941
     -2645.592       -2061.509
  24764833.627 3  -1458863.037 3  -1090324.25141  24764834.82143  24764836.54141
      3685.367        2871.720
  24389597.360 3  -4658389.648 3  -3602567.55041  24389596.92243  24389599.59041
      1065.053         829.906
  20996773.392 4 -21460714.244 4 -16666087.40942  20996773.65244  20996776.22042
     -1086.584        -846.690
 04  2  2  1  4 30.0000000  0 11G13G 8G21G29G26G10G17G 2G28G 3G27
  23275145.308 3 -11303042.292 3  -8748840.74342  23275145.88343  23275149.21642
     -3309.556       -2578.866
  20582366.196 4 -27513822.292 4 -21378774.32342  20582365.87344  20582368.42642
      1517.825        1182.718
  24723145.022 3  -2442916.654 3  -1869722.83141  24723144.86443  24723145.83041
      2114.190        1647.414
  23095588.042 3 -10223834.276 3  -7917628.06042  23095588.07543  23095591.43542
      2992.014        2331.438
  24087917.529 3  -3425644.695 3  -2613757.11441  24087918.02443  24087918.76841
      3684.910        2871.357
  21074268.977 4 -22770843.337 4 -17693580.76242  21074268.03344  21074271.31942
       -77.072         -60.055
  23147614.686 3 -12138884.585 3  -9435525.72642  23147613.47643  23147617.68242
     -2165.614       -1687.494
  25155539.090 3  -2937304.495 3  -2245349.28741  25155537.83543  25155542.71741
     -2649.523       -2064.558
  24754315.879 3  -1514131.508 3  -1133390.57741  24754315.94143  24754318.87341
      3683.981        2870.634
  24386568.622 3  -4674301.565 3  -3614966.44341  24386569.97843  24386573.36041
      1056.116         822.947
  20999884.960 4 -21444366.439 4 -16653348.86042  20999884.51444  20999887.09142
     -1093.198        -851.844
 04  2  2  1  4 45.0000000  0 11G13G 8G21G29G26G10G17G 2G28G 3G27
  23284596.542 3 -11253375.451 3  -8710139.31342  23284597.72943  23284598.89442
     -3312.715       -2581.329
  20578045.970 4 -27536524.959 4 -21396464.70442  20578045.47744  20578048.15642
      1509.272        1176.043
  24717123.758 3  -2474567.952 3  -1894386.19541  24717122.09443  24717123.16741
      2106.188        1641.205
  23087052.256 3 -10268691.650 3  -7952581.86042  23087052.27243  23087054.13042
      2989.018        2329.099
  24077402.430 3  -3480901.303 3  -2656814.18641  24077403.03243  24077404.54441
      3682.842        2869.748
  21074503.249 4 -22769609.433 4 -17692619.28142  21074502.48444  21074505.98542
       -87.294         -68.024
  23153807.899 3 -12106337.518 3  -9410164.38342  23153807.73643  23153811.01442
     -2173.835       -1693.889
  25163108.568 3  -2897528.659 3  -2214355.13541  25163109.30543  25163111.73441
     -2653.808       -2067.912
  24743802.453 3  -1569382.168 3  -1176443.03541  24743802.63643  24743805.09341
      3682.595        2869.549
  24383566.869 3  -4690077.999 3  -3627259.77941  24383566.72943  24383569.35041
      1047.464         816.207
  21003014.988 4 -21427917.751 4 -16640531.70042  21003014.78044  21003017.15842
     -1099.989        -857.150
 04  2  2  1  5  0.0000000  0 11G13G 8G21G29G26G10G17G 2G28G 3G27
  23294056.864 3 -11203660.406 3  -8671400.32542  23294057.65443  23294059.91742
     -3316.195       -2584.050
  20573749.754 4 -27559100.707 4 -21414056.18542  20573749.41744  20573752.15042
      1500.567        1169.255
  24711121.062 3  -2506097.606 3  -1918954.77641  24711120.53243  24711123.45041
      2097.696        1634.566
  23078525.492 3 -10313502.196 3  -7987499.17342  23078526.10443  23078528.09142
      2985.475        2326.319
  24066893.443 3  -3536126.979 3  -2699847.16441  24066894.01943  24066896.49141
      3680.592        2867.984
  21074767.556 4 -22768221.527 4 -17691537.79342  21074766.78244  21074770.10842
       -97.973         -76.354
  23160024.549 3 -12073668.870 3  -9384708.30242  23160024.62743  23160026.17242
     -2182.477       -1700.639
  25170690.066 3  -2857689.014 3  -2183311.26941  25170690.98043  25170692.68741
     -2658.438       -2071.507
  24733291.599 3  -1624614.659 3  -1219481.31741  24733291.45843  24733293.86741
      3681.302        2868.548
  24380590.878 3  -4705718.663 3  -3639447.31241  24380590.39943  24380593.24941
      1037.774         808.666
  21006164.035 4 -21411368.192 4 -16627635.94242  21006163.90744  21006166.20542
     -1106.882        -862.511
 04  2  2  1  5 15.0000000  0 11G13G 8G21G29G26G10G17G 2G28G 3G27
  23303527.086 3 -11153897.446 3  -8632624.00442  23303527.56643  23303528.14342
     -3319.337       -2586.506
  20569477.892 4 -27581549.520 4 -21431548.76142  20569477.79444  20569480.32342
      1492.105        1162.692
  24705145.596 3  -2537505.405 3  -1943428.40341  24705144.53943  24705145.49941
      2089.410        1628.117
  23070006.951 3 -10358265.759 3  -8022379.87942  23070007.96443  23070009.48742
      2982.463        2324.012
  24056390.420 3  -3591321.746 3  -2742856.06441  24056390.91943  24056394.05241
      3678.361        2866.261
  21075061.067 4 -22766679.697 4 -17690336.37042  21075060.44744  21075063.66342
      -108.264         -84.349
  23166263.829 3 -12040878.998 3  -9359157.75742  23166264.73143  23166265.74242
     -2190.177       -1706.619
  25178283.704 3  -2817785.881 3  -2152217.91741  25178282.30743  25178285.88541
     -2662.690       -2074.822
  24722785.037 3  -1679828.722 3  -1262505.24441  24722785.42143  24722788.10341
      3679.952        2867.504
  24377640.199 3  -4721223.424 3  -3651528.96641  24377640.50343  24377642.38241
      1028.816         801.678
  21009332.758 4 -21394717.974 4 -16614661.74242  21009332.43244  21009334.95842
     -1113.582        -867.716
 04  2  2  1  5 30.0000000  0 11G13G 8G21G29G26G10G17G 2G28G 3G27
  23313005.939 3 -11104086.600 3  -8593810.37642  23313006.26643  23313006.87942
     -3322.489       -2588.925
  20565230.451 4 -27603871.267 4 -21448942.32342  20565230.11744  20565232.82542
      1483.788        1156.205
  24699192.566 3  -2568790.876 3  -1967806.72341  24699191.81143  24699193.48341
      2081.523        1621.943
  23061497.463 3 -10402982.125 3  -8057223.81342  23061498.00343  23061500.70942
      2979.490        2321.676
  24045892.942 3  -3646485.224 3  -2785840.58941  24045893.51043  24045896.86441
      3676.633        2864.923
  21075383.588 4 -22764983.815 4 -17689014.91242  21075383.33244  21075386.02842
      -118.295         -92.182
  23172527.292 3 -12007968.231 3  -9333513.02742  23172526.51343  23172528.36442
     -2198.183       -1712.848
  25185888.859 3  -2777819.443 3  -2121075.23941  25185888.83443  25185891.49541
     -2666.921       -2078.109
  24712282.566 3  -1735023.969 3  -1305514.48741  24712281.87643  24712285.49741
      3679.080        2866.826
  24374715.590 3  -4736592.229 3  -3663504.66341  24374714.83143  24374718.06941
      1019.837         794.678
  21012519.776 4 -21377967.121 4 -16601609.13442  21012520.07144  21012522.54742
     -1120.075        -872.781
 04  2  2  1  5 45.0000000  0 11G13G 8G21G29G26G10G17G 2G28G 3G27
  23322493.243 3 -11054227.941 3  -8554959.50142  23322492.72143  23322495.33942
     -3325.461       -2591.229
  20561006.659 4 -27626065.725 4 -21466236.70142  20561006.54844  20561009.41742
      1475.414        1149.681
  24693261.055 3  -2599953.724 3  -1992089.43541  24693259.96243  24693262.03641
      2073.270        1615.529
  23052997.667 3 -10447651.229 3  -8092030.92442  23052997.49743  23052999.52642
      2976.409        2319.298
  24035402.267 3  -3701617.086 3  -2828800.48341  24035402.45243  24035403.96741
      3674.483        2863.238
  21075735.733 4 -22763133.681 4 -17687573.24742  21075735.12044  21075738.01942
      -128.373        -100.016
  23178813.233 3 -11974936.808 3  -9307774.24242  23178812.15243  23178815.06842
     -2205.863       -1718.858
  25193505.728 3  -2737789.903 3  -2089883.38941  25193505.61443  25193509.16241
     -2670.691       -2081.045
  24701782.070 3  -1790200.047 3  -1348508.81041  24701782.55443  24701784.92741
      3677.639        2865.693
  24371817.519 3  -4751824.719 3  -3675374.13041  24371816.89243  24371818.42541
      1010.701         787.569
  21015726.815 4 -21361115.806 4 -16588478.24442  21015726.69344  21015729.36642
     -1126.735        -877.974
 04  2  2  1  6  0.0000000  0 11G13G 8G21G29G26G10G17G 2G28G 3G27
  23331990.317 3 -11004321.720 3  -8516071.54142  23331989.87843  23331991.73842
     -3329.025       -2594.024
  20556807.557 4 -27648132.866 4 -21483431.87142  20556807.33944  20556809.87142
      1466.542        1142.754
  24687355.394 3  -2630993.789 3  -2016276.45541  24687355.62543  24687358.24441
      2064.590        1608.779
  23044506.302 3 -10492272.887 3  -8126801.04842  23044506.02643  23044508.50942
      2972.926        2316.577
  24024916.332 3  -3756717.337 3  -2871735.74641  24024917.09643  24024919.59841
      3672.015        2861.306
  21076117.516 4 -22761129.289 4 -17686011.38442  21076116.65644  21076119.23742
      -139.052        -108.362
  23185121.457 3 -11941785.059 3  -9281941.73542  23185120.27943  23185124.83342
     -2214.400       -1725.513
  25201134.691 3  -2697697.568 3  -2058642.62741  25201135.74843  25201138.25541
     -2675.676       -2084.946
  24691285.740 3  -1845356.660 3  -1391487.94741  24691285.61343  24691288.71641
      3676.170        2864.543
  24368944.364 3  -4766920.800 3  -3687137.29741  24368944.08943  24368945.45941
      1001.375         780.281
  21018952.596 4 -21344164.119 4 -16575269.13842  21018951.99544  21018955.06642
     -1134.055        -883.690
 04  2  2  1  6 15.0000000  0 11G13G 8G21G29G26G10G17G 2G28G 3G27
  23341496.460 3 -10954368.339 3  -8477146.83242  23341496.76543  23341497.62542
     -3331.711       -2596.158
  20552632.383 4 -27670072.795 4 -21500527.91042  20552632.11144  20552635.18342
      1458.571        1136.555
  24681473.042 3  -2661910.827 3  -2040367.67141  24681472.75143  24681472.33241
      2057.152        1602.981
  23036024.469 3 -10536846.972 3  -8161534.11642  23036024.28543  23036026.81742
      2970.298        2314.531
  24014437.045 3  -3811785.681 3  -2914646.14741  24014437.40043  24014439.63941
      3670.063        2859.789
  21076528.042 4 -22758970.826 4 -17684329.46542  21076527.44744  21076530.35542
      -148.927        -116.042
  23191451.566 3 -11908513.349 3  -9256015.73542  23191451.92643  23191455.59142
     -2221.860       -1731.335
  25208776.454 3  -2657542.817 3  -2027353.21641  25208775.20443  25208779.62941
     -2678.895       -2087.452
  24680794.198 3  -1900493.640 3  -1434451.78041  24680794.05543  24680797.35041
      3675.147        2863.748
  24366097.361 3  -4781880.207 3  -3698793.97141  24366097.76943  24366099.80141
       993.059         773.809
  21022196.929 4 -21327112.286 4 -16561981.99742  21022197.15244  21022200.09442
     -1140.024        -888.338
 04  2  2  1  6 30.0000000  0 11G13G 8G21G29G26G10G17G 2G28G 3G27
  23351011.223 3 -10904367.762 3  -8438185.34442  23351011.23143  23351013.93542
     -3335.406       -2599.008
  20548481.771 4 -27691885.060 4 -21517524.47542  20548481.49544  20548484.30642
      1449.363        1129.386
  24675611.878 3  -2692704.482 3  -2064362.75241  24675612.86043  24675614.44841
      2048.331        1596.104
  23027551.448 3 -10581373.188 3  -8196229.86742  23027550.82043  23027553.66542
      2966.229        2311.353
  24003963.837 3  -3866821.933 3  -2957531.56241  24003965.11043  24003966.16241
      3667.411        2857.716
  21076968.013 4 -22756658.305 4 -17682527.50042  21076967.62144  21076970.42242
      -159.895        -124.584
  23197806.528 3 -11875122.093 3  -9229996.56342  23197805.44743  23197809.12542
     -2230.417       -1737.969
  25216430.242 3  -2617325.762 3  -1996015.25241  25216428.47243  25216431.66941
     -2683.778       -2091.266
  24670306.043 3  -1955610.643 3  -1477400.05641  24670305.34543  24670309.69741
      3673.239        2862.268
  24363276.918 3  -4796702.870 3  -3710344.10041  24363277.25343  24363279.79341
       983.404         766.293
  21025461.374 4 -21309960.374 4 -16548616.87142  21025461.10044  21025463.67342
     -1147.212        -893.920
 04  2  2  1  6 45.0000000  0 11G13G 8G21G29G26G10G17G 2G28G 3G27
  23360534.819 3 -10854319.996 3  -8399187.10342  23360536.00843  23360535.95642
     -3337.770       -2600.837
  20544355.369 4 -27713569.691 4 -21534421.58342  20544354.76644  20544357.79642
      1441.811        1123.486
  24669776.078 3  -2723374.460 3  -2088261.45341  24669776.49743  24669779.35941
      2040.999        1590.387
  23019087.222 3 -10625851.311 3  -8230888.15242  23019087.16143  23019089.61942
      2963.988        2309.603
  23993497.304 3  -3921825.934 3  -3000391.82741  23993496.82843  23993500.53641
      3666.510        2857.020
  21077437.184 4 -22754191.682 4 -17680605.45442  21077436.73244  21077440.00342
      -169.056        -131.728
  23204183.103 3 -11841611.488 3  -9203884.40042  23204183.47843  23204186.47242
     -2237.772       -1743.710
  25224094.151 3  -2577046.590 3  -1964628.90441  25224093.89043  25224098.35341
     -2686.966       -2093.733
  24659821.363 3  -2010707.194 3  -1520332.40141  24659821.01643  24659823.92341
      3672.883        2861.992
  24360483.746 3  -4811388.550 3  -3721787.48441  24360483.01443  24360484.72841
       975.240         759.933
  21028744.064 4 -21292708.445 4 -16535173.80942  21028744.04544  21028746.66442
     -1153.103        -898.516
 04  2  2  1  7  0.0000000  0 11G13G 8G21G29G26G10G17G 2G28G 3G27
  23370068.036 3 -10804225.409 3  -8360152.36242  23370067.24643  23370070.21142
     -3341.268       -2603.560
  20540252.952 4 -27735126.546 4 -21551219.12642  20540252.67244  20540255.96642
      1432.974        1116.621
  24663963.253 3  -2753920.554 3  -2112063.60441  24663963.69343  24663964.30441
      2032.318        1583.636
  23010633.354 3 -10670281.270 3  -8265508.90642  23010633.16243  23010634.99642
      2960.322        2306.759
  23983036.951 3  -3976797.403 3  -3043226.73641  23983037.81643  23983038.11241
      3663.585        2854.734
  21077935.980 4 -22751570.904 4 -17678563.29242  21077935.39644  21077938.58142
      -179.836        -140.128
  23210582.924 3 -11807982.005 3  -9177679.60342  23210582.80343  23210585.51642
     -2245.921       -1750.080
  25231770.989 3  -2536705.690 3  -1933194.44741  25231770.34243  25231773.32241
     -2691.625       -2097.351
  24649341.055 3  -2065783.120 3  -1563248.66941  24649339.43243  24649342.60941
      3671.065        2860.570
  24357712.654 3  -4825937.114 3  -3733124.01741  24357713.30343  24357717.16641
       965.371         752.234
  21032046.322 4 -21275356.622 4 -16521652.90642  21032046.08144  21032048.68442
     -1160.083        -903.960
 04  2  2  1  7 15.0000000  0 12G24G13G 8G21G29G26G10G17G 2G28G 3G27
  25278611.318 3    106037.033 3
     -3370.663
  23379608.878 3 -10754084.199 3  -8321081.30742  23379610.54643  23379610.96042
     -3344.247       -2605.891
  20536175.383 4 -27756555.506 4 -21567917.01242  20536174.96644  20536177.97742
      1424.621        1110.102
  24658174.332 3  -2784342.556 3  -2135769.04941  24658173.74143  24658174.85141
      2024.446        1577.490
  23002187.456 3 -10714662.861 3  -8300091.97742  23002187.68443  23002188.89442
      2957.333        2304.422
  23972582.361 3  -4031736.133 3  -3086036.13141  23972581.90343  23972585.38541
      3661.862        2853.395
  21078464.170 4 -22748795.952 4 -17676400.99342  21078463.46444  21078466.44142
      -189.784        -147.877
  23217005.415 3 -11774233.853 3  -9151382.32942  23217004.92243  23217009.03042
     -2253.352       -1755.854
  25239458.805 3  -2496303.250 3  -1901712.04341  25239457.74243  25239462.75141
     -2695.373       -2100.282
  24638864.054 3  -2120838.154 3  -1606148.67641  24638863.03443  24638867.37441
      3670.126        2859.834
  24354971.410 3  -4840348.302 3  -3744353.51941  24354969.81643  24354974.32941
       956.939         745.669
  21035366.972 4 -21257905.187 4 -16508054.39142  21035366.65244  21035369.65542
     -1166.529        -908.975
 04  2  2  1  7 30.0000000  0 11G13G 8G21G29G26G10G17G 2G28G 3G27
  23389159.387 3 -10703896.388 3  -8281973.93142  23389159.93843  23389161.59842
     -3347.530       -2608.488
  20532122.150 4 -27777856.408 4 -21584515.10942  20532121.78744  20532124.61042
      1415.495        1102.974
  24652409.257 3  -2814640.126 3  -2159377.54641  24652408.74343  24652411.39341
      2015.402        1570.439
  22993750.666 3 -10758995.723 3  -8334637.05942  22993751.73143  22993752.40442
      2953.619        2301.488
  23962134.586 3  -4086641.738 3  -3128819.72841  23962134.67243  23962135.89841
      3659.143        2851.282
  21079021.869 4 -22745866.814 4 -17674118.55142  21079021.22144  21079024.16242
      -200.749        -156.436
  23223449.415 3 -11740367.369 3  -9124992.86142  23223448.57343  23223452.59742
     -2262.046       -1762.621
  25247159.847 3  -2455839.440 3  -1870181.82341  25247157.66443  25247162.35241
     -2699.669       -2103.630
  24628391.433 3  -2175871.846 3  -1649032.03041  24628391.16743  24628393.99441
      3668.099        2858.260
  24352255.011 3  -4854621.923 3  -3755475.84141  24352255.08643  24352257.16541
       946.484         737.517
  21038706.768 4 -21240353.996 4 -16494378.13842  21038706.77344  21038709.09642
     -1173.711        -914.577
 04  2  2  1  7 45.0000000  0 11G13G 8G21G29G26G10G17G 2G28G 3G27
  23398718.331 3 -10653662.311 3  -8242830.50542  23398718.68443  23398720.48142
     -3350.169       -2610.494
  20528092.981 4 -27799029.306 4 -21601013.46642  20528092.45044  20528095.36742
      1407.480        1096.742
  24646666.006 3  -2844813.038 3  -2182888.90241  24646667.46043  24646669.10541
      2007.493        1564.277
  22985323.074 3 -10803279.983 3  -8369144.27742  22985323.45243  22985325.95642
      2950.986        2299.490
  23951692.325 3  -4141514.324 3  -3171577.59041  23951692.33343  23951694.67141
      3657.251        2849.812
  21079608.368 4 -22742783.664 4 -17671716.09542  21079607.94144  21079610.54642
      -210.489        -164.013
  23229916.030 3 -11706383.042 3  -9098511.58842  23229915.73743  23229919.57342
     -2269.325       -1768.301
  25254871.180 3  -2415314.701 3  -1838604.10841  25254870.64343  25254874.51541
     -2703.588       -2106.698
  24617922.960 3  -2230884.078 3  -1691898.65241  24617922.46343  24617926.21541
      3667.173        2857.542
  24349567.037 3  -4868757.958 3  -3766490.94941  24349565.60143  24349568.90441
       937.831         730.781
  21042065.434 4 -21222703.520 4 -16480624.52042  21042065.59844  21042068.15242
     -1179.876        -919.383
 04  2  2  1  8  0.0000000  0 12G24G13G 8G21G29G26G10G17G 2G28G 3G27
  25307491.960 3    257807.714 3    150849.90741  25307492.36543  25307500.86841
     -3374.520       -2629.486
  23408286.415 3 -10603382.094 3  -8203651.13042  23408286.57743  23408289.28042
     -3353.351       -2612.979
  20524088.250 4 -27820073.929 4 -21617411.86942  20524088.13644  20524090.77842
      1398.680        1089.878
  24640949.015 3  -2874861.054 3  -2206302.93541  24640947.82043  24640950.41541
      1998.954        1557.625
  22976905.396 3 -10847515.269 3  -8403613.33042  22976906.18043  22976907.37842
      2947.424        2296.684
  23941256.443 3  -4196353.612 3  -3214309.49441  23941256.00143  23941259.51241
      3654.832        2847.931
  21080224.488 4 -22739546.320 4 -17669193.49242  21080224.02244  21080226.53942
      -220.980        -172.194
  23236406.479 3 -11672281.066 3  -9071938.62442  23236406.04943  23236409.52742
     -2277.282       -1774.492
  25262593.460 3  -2374729.182 3  -1806979.02341  25262593.38543  25262598.20441
     -2707.940       -2110.081
  24607458.458 3  -2285874.342 3  -1734748.13541  24607456.96743  24607461.47241
      3665.457        2856.189
  24346902.152 3  -4882756.169 3  -3777398.63741  24346902.37143  24346904.20941
       928.324         723.367
  21045443.263 4 -21204953.645 4 -16466793.45042  21045443.18944  21045446.03042
     -1186.697        -924.701
 04  2  2  1  8 15.0000000  0 12G24G13G 8G21G29G26G10G17G 2G28G 3G27
  25317125.933 3    308431.718 3    190297.21241  25317127.20443  25317133.20941
     -3375.232       -2630.040
  23417863.617 3 -10553055.845 3  -8164435.88942  23417863.73843  23417866.50042
     -3356.595       -2615.531
  20520108.033 4 -27840990.266 4 -21633710.30542  20520107.70044  20520110.27042
      1390.222        1083.287
  24635254.149 3  -2904783.980 3  -2229619.52241  24635253.67743  24635255.31941
      1990.577        1551.097
  22968497.887 3 -10891701.429 3  -8438044.11542  22968497.60543  22968499.23642
      2944.109        2294.114
  23930827.405 3  -4251159.289 3  -3257015.21041  23930827.79543  23930829.91341
      3652.291        2845.940
  21080869.931 4 -22736154.673 4 -17666550.65342  21080869.19944  21080872.17542
      -231.264        -180.198
  23242917.130 3 -11638061.802 3  -9045274.28242  23242917.76643  23242920.64742
     -2285.331       -1780.783
  25270329.205 3  -2334083.061 3  -1775306.72141  25270327.89943  25270331.41041
     -2711.435       -2112.796
  24596997.958 3  -2340842.317 3  -1777580.25841  24596998.40443  24597000.93041
      3663.763        2854.885
  24344263.668 3  -4896616.303 3  -3788198.71541  24344264.64643  24344267.36641
       919.343         716.369
  21048839.759 4 -21187104.618 4 -16452885.11642  21048839.65244  21048842.38142
     -1193.191        -929.761
 04  2  2  1  8 30.0000000  0 12G24G13G 8G21G29G26G10G17G 2G28G 3G27
  25326763.057 3    359071.918 3    229757.11341  25326762.40443  25326766.67241
     -3377.175       -2631.574
  23427449.338 3 -10502683.828 3  -8125184.97642  23427450.19743  23427451.45442
     -3360.399       -2618.520
  20516152.061 4 -27861778.145 4 -21649908.64642  20516151.74244  20516154.69242
      1380.774        1075.919
  24629585.270 3  -2934581.348 3  -2252838.26641  24629583.91543  24629585.69741
      1981.404        1543.937
  22960098.446 3 -10935838.254 3  -8472436.44542  22960098.82843  22960101.99442
      2940.059        2290.956
  23920405.326 3  -4305931.105 3  -3299694.54641  23920405.25243  23920406.96741
      3649.679        2843.899
  21081544.448 4 -22732608.806 4 -17663787.64842  21081543.83044  21081546.85342
      -242.286        -188.790
  23249451.349 3 -11603725.622 3  -9018518.81342  23249451.01943  23249454.92642
     -2293.647       -1787.261
  25278075.616 3  -2293376.664 3  -1743587.45141  25278074.66943  25278077.69741
     -2716.505       -2116.752
  24586542.800 3  -2395787.759 3  -1820394.84341  24586543.41443  24586545.81441
      3661.233        2852.897
  24341653.401 3  -4910338.180 3  -3798891.07441  24341652.36343  24341654.89741
       909.317         708.558
  21052255.208 4 -21169156.426 4 -16438899.50942  21052255.19544  21052257.69842
     -1200.684        -935.606
 04  2  2  1  8 45.0000000  0 12G24G13G 8G21G29G26G10G17G 2G28G 3G27
  25336403.426 3    409727.963 3    269229.33041  25336403.38943  25336408.24841
     -3376.698       -2631.176
  23437043.383 3 -10452266.325 3  -8085898.61842  23437043.46043  23437045.25342
     -3361.984       -2619.725
  20512220.718 4 -27882437.637 4 -21666006.94642  20512220.42944  20512223.53142
      1373.772        1070.468
  24623939.136 3  -2964253.077 3  -2275959.09941  24623938.34943  24623939.74441
      1974.622        1538.666
  22951709.435 3 -10979925.653 3  -8506790.25742  22951709.31743  22951710.92342
      2938.401        2289.662
  23909989.042 3  -4360668.990 3  -3342347.44141  23909988.69143  23909991.09741
      3648.507        2842.997
  21082248.516 4 -22728908.850 4 -17660904.57342  21082248.01144  21082250.80642
      -251.102        -195.673
  23256007.536 3 -11569272.999 3  -8991672.64942  23256007.73343  23256011.15442
     -2300.058       -1792.253
  25285833.045 3  -2252610.342 3  -1711821.49441  25285832.56643  25285836.09541
     -2718.874       -2118.605
  24576090.981 3  -2450710.440 3  -1863191.71141  24576091.45943  24576092.74941
      3661.337        2852.982
  24339067.792 3  -4923921.794 3  -3809475.71541  24339068.05143  24339071.12041
       901.831         702.724
  21055689.875 4 -21151109.390 4 -16424836.88642  21055689.70244  21055692.07242
     -1205.739        -939.538
 04  2  2  1  9  0.0000000  0 12G24G13G 8G21G29G26G10G17G 2G28G 3G27
  25346047.390 3    460399.607 3    308713.68141  25346045.22843  25346049.02741
     -3378.896       -2632.918
  23446645.589 3 -10401803.347 3  -8046576.83842  23446646.23043  23446647.41542
     -3365.853       -2622.769
  20508313.842 4 -27902968.379 4 -21682004.91742  20508313.50244  20508316.68142
      1364.354        1063.121
  24618315.486 3  -2993798.686 3  -2298981.65841  24618315.61943  24618318.06941
      1965.476        1531.530
  22943328.854 3 -11023963.293 3  -8541105.29842  22943329.63143  22943331.14742
      2934.148        2286.327
  23899578.514 3  -4415372.565 3  -3384973.59841  23899577.68143  23899581.46241
      3645.429        2840.591
  21082982.089 4 -22725054.623 4 -17657901.28242  21082981.33544  21082984.23442
      -262.166        -204.284
  23262586.738 3 -11534703.982 3  -8964735.76442  23262586.37343  23262588.70842
     -2308.702       -1798.993
  25293600.769 3  -2211784.151 3  -1680008.89441  25293600.50343  25293604.00241
     -2723.643       -2122.323
  24565644.056 3  -2505609.923 3  -1905970.50941  24565643.84343  24565646.29541
      3659.201        2851.323
  24336510.473 3  -4937366.853 3  -3819952.38641  24336509.32543  24336512.55941
       891.269         694.490
  21059142.679 4 -21132963.464 4 -16410697.20542  21059142.43644  21059144.93342
     -1213.162        -945.329
 04  2  2  1  9 15.0000000  0 12G24G13G 8G21G29G26G10G17G 2G28G 3G27
  25355692.600 3    511086.381 3    348209.84141  25355693.02743  25355700.10141
     -3379.638       -2633.467
  23456257.810 3 -10351295.144 3  -8007219.82142  23456258.79243  23456259.76242
     -3368.893       -2625.121
  20504431.688 4 -27923370.413 4 -21697902.60242  20504431.06444  20504434.22342
      1355.750        1056.427
  24612717.688 3  -3023218.083 3  -2321905.87241  24612717.95143  24612719.59041
      1956.824        1524.796
  22934958.834 3 -11067951.115 3  -8575381.51242  22934957.97143  22934960.80642
      2930.674        2283.661
  23889174.216 3  -4470041.740 3  -3427572.96441  23889174.85243  23889178.34641
      3642.924        2838.639
  21083744.907 4 -22721046.292 4 -17654777.91142  21083744.05144  21083746.98042
      -272.486        -212.321
  23269186.814 3 -11500019.005 3  -8937708.50442  23269185.87843  23269189.26942
     -2316.375       -1804.957
  25301382.227 3  -2170898.479 3  -1648149.96541  25301381.12643  25301385.74741
     -2727.876       -2125.606
  24555201.579 3  -2560486.022 3  -1948731.06341  24555201.59843  24555204.83241
      3657.560        2850.042
  24333977.452 3  -4950673.455 3  -3830321.15341  24333978.14843  24333981.69341
       882.390         687.573
  21062614.182 4 -21114718.890 4 -16396480.65842  21062614.21744  21062617.05142
     -1219.778        -950.473
 04  2  2  1  9 30.0000000  0 12G24G13G 8G21G29G26G10G17G 2G28G 3G27
  25365340.889 3    561787.856 3    387717.48441  25365343.16843  25365343.07541
     -3380.466       -2634.124
  23465877.283 3 -10300741.793 3  -7967827.61842  23465877.90743  23465881.43542
     -3371.972       -2627.501
  20500573.611 4 -27943643.633 4 -21713699.90942  20500573.11544  20500576.30642
      1347.160        1049.727
  24607144.556 3  -3052510.864 3  -2344731.42741  24607144.28943  24607144.96441
      1948.389        1518.228
  22926597.446 3 -11111888.843 3  -8609618.70042  22926597.72043  22926599.41142
      2927.213        2280.911
  23878777.148 3  -4524676.327 3  -3470145.36941  23878777.91443  23878782.12541
      3640.964        2837.109
  21084536.525 4 -22716883.787 4 -17651534.40642  21084536.16044  21084539.17442
      -282.733        -220.323
  23275808.733 3 -11465218.481 3  -8910591.20042  23275809.18043  23275811.61942
     -2324.326       -1811.160
  25309173.292 3  -2129953.629 3  -1616244.88841  25309172.15543  25309176.11441
     -2731.868       -2128.736
  24544763.318 3  -2615338.375 3  -1991473.10441  24544762.76943  24544766.36941
      3655.532        2848.460
  24331472.144 3  -4963841.229 3  -3840581.75341  24331472.04243  24331473.82341
       872.976         680.234
  21066105.045 4 -21096375.750 4 -16382187.29942  21066104.83244  21066107.61242
     -1226.285        -955.549
 04  2  2  1  9 45.0000000  0 12G24G13G 8G21G29G26G10G17G 2G28G 3G27
  25374989.739 3    612503.840 3    427236.45341  25374991.81043  25374997.94941
     -3381.736       -2635.101
  23475505.892 3 -10250143.448 3  -7928400.33642  23475505.85843  23475507.77942
     -3374.656       -2629.613
  20496740.079 4 -27963787.922 4 -21729396.74842  20496739.79144  20496742.95742
      1338.815        1043.237
  24601594.784 3  -3081676.922 3  -2367458.23041  24601594.63243  24601594.36641
      1940.553        1512.116
  22918244.602 3 -11155776.369 3  -8643816.75842  22918246.25043  22918247.96042
      2924.100        2278.490
  23868388.173 3  -4579276.015 3  -3512690.57041  23868389.11643  23868391.07541
      3638.963        2835.557
  21085358.323 4 -22712567.097 4 -17648170.75642  21085357.79244  21085360.80742
      -292.828        -228.176
  23282453.554 3 -11430302.753 3  -8883384.16742  23282453.90643  23282456.89142
     -2331.398       -1816.663
  25316976.653 3  -2088949.798 3  -1584293.84141  25316973.62543  25316975.99841
     -2735.771       -2131.770
  24534329.646 3  -2670166.573 3  -2034196.34141  24534329.15943  24534331.96941
      3654.416        2847.596
  24328992.815 3  -4976869.988 3  -3850734.04741  24328991.92143  24328995.39341
       864.084         673.317
  21069614.546 4 -21077934.164 4 -16367817.23242  21069614.29344  21069616.81942
     -1232.615        -960.489
 04  2  2  1 10  0.0000000  0 12G24G13G 8G21G29G26G10G17G 2G28G 3G27
  25384643.232 3    663233.918 3    466766.39941  25384646.34743  25384648.68841
     -3382.568       -2635.770
  23485142.414 3 -10199500.297 3  -7888938.15742  23485143.98043  23485144.21342
     -3377.719       -2631.995
  20492931.278 4 -27983803.207 4 -21744993.06542  20492931.03944  20492933.88842
      1330.210        1036.531
  24596067.507 3  -3110715.958 3  -2390086.05141  24596067.89243  24596067.05941
      1931.877        1505.359
  22909903.549 3 -11199613.409 3  -8677975.47942  22909904.00643  22909905.43942
      2921.064        2276.164
  23858004.236 3  -4633840.618 3  -3555208.43541  23858005.79643  23858007.96041
      3636.395        2833.553
  21086209.168 4 -22708096.398 4 -17644687.09942  21086208.50344  21086211.60542
      -303.016        -236.125
  23289119.350 3 -11395272.200 3  -8856087.66942  23289118.61643  23289121.15442
     -2338.923       -1822.533
  25324790.694 3  -2047887.277 3  -1552297.06041  25324789.89043  25324793.53441
     -2738.985       -2134.280
  24523901.220 3  -2724970.496 3  -2076900.67641  24523900.41543  24523903.26641
      3652.841        2846.366
  24326540.330 3  -4989759.680 3  -3860777.97841  24326540.50143  24326542.22541
       854.492         665.837
  21073142.634 4 -21059394.232 4 -16353370.53342  21073142.26544  21073144.69542
     -1239.201        -965.604
 04  2  2  1 10 15.0000000  0 12G24G13G 8G21G29G26G10G17G 2G28G 3G27
  25394298.752 3    713977.717 3    506307.03141  25394299.65843  25394308.39341
     -3383.402       -2636.425
  23494788.484 3 -10148812.562 3  -7849441.22542  23494788.59643  23494790.64242
     -3380.567       -2634.205
  20489147.211 4 -28003689.349 4 -21760488.75042  20489146.94744  20489150.19542
      1321.579        1029.804
  24590566.249 3  -3139627.737 3  -2412614.72041  24590565.88643  24590566.37941
      1923.075        1498.506
  22901571.121 3 -11243399.870 3  -8712094.78742  22901571.07343  22901573.60342
      2917.627        2273.501
  23847628.566 3  -4688369.940 3  -3597698.82741  23847629.01943  23847631.07741
      3634.608        2832.167
  21087089.210 4 -22703471.509 4 -17641083.29142  21087088.62844  21087091.72042
      -313.358        -244.177
  23295808.196 3 -11360126.997 3  -8828701.83442  23295807.84143  23295810.27642
     -2346.999       -1828.827
  25332615.609 3  -2006766.284 3  -1520254.72341  25332614.58243  25332618.17041
     -2743.110       -2137.490
  24513478.175 3  -2779749.734 3  -2119585.78341  24513477.29243  24513479.18741
      3651.272        2845.150
  24324112.727 3  -5002510.080 3  -3870713.35041  24324113.38643  24324116.63941
       845.713         658.999
  21076689.133 4 -21040756.172 4 -16338847.36842  21076689.05244  21076691.36342
     -1245.713        -970.675
 04  2  2  1 10 30.0000000  0 12G24G13G 8G21G29G26G10G17G 2G28G 3G27
  25403958.658 3    764735.086 3    545858.21341  25403959.28643  25403965.73641
     -3384.650       -2637.378
  23504442.765 3 -10098080.432 3  -7809909.70542  23504443.42843  23504444.55042
     -3383.756       -2636.663
  20485387.639 4 -28023446.158 4 -21775883.66142  20485387.32144  20485390.26542
      1312.658        1022.844
  24585087.608 3  -3168411.924 3  -2435043.97141  24585087.17143  24585089.62541
      1914.659        1491.937
  22893248.647 3 -11287135.466 3  -8746174.46242  22893248.74043  22893250.89742
      2913.893        2270.564
  23837259.870 3  -4742863.576 3  -3640161.42141  23837259.98143  23837260.06341
      3631.447        2829.696
  21087998.569 4 -22698692.346 4 -17637359.27442  21087997.98744  21088001.34942
      -323.929        -252.419
  23302517.967 3 -11324867.597 3  -8801227.00942  23302517.90743  23302519.67442
     -2354.595       -1834.761
  25340451.125 3  -1965587.000 3  -1488166.99041  25340451.38043  25340455.74541
     -2747.336       -2140.786
  24503057.135 3  -2834503.934 3  -2162251.37941  24503056.34943  24503060.15741
      3649.087        2843.443
  24321714.406 3  -5015120.959 3  -3880540.01141  24321713.83043  24321715.76741
       835.776         651.261
  21080254.504 4 -21022020.056 4 -16324247.79542  21080254.42844  21080256.99442
     -1252.454        -975.936
 04  2  2  1 10 45.0000000  0 12G24G13G 8G21G29G26G10G17G 2G28G 3G27
  25413620.451 3    815505.303 3    585419.42241  25413619.43643  25413627.49441
     -3384.584       -2637.346
  23514105.020 3 -10047304.163 3  -7770343.79742  23514105.53343  23514107.78342
     -3386.133       -2638.536
  20481652.571 4 -28043073.751 4 -21791177.88742  20481652.50644  20481655.08442
      1304.538        1016.533
  24579636.206 3  -3197068.372 3  -2457373.66741  24579633.98143  24579636.36941
      1906.565        1485.634
  22884936.117 3 -11330820.146 3  -8780214.47342  22884936.10943  22884938.73142
      2910.860        2268.206
  23826896.249 3  -4797321.740 3  -3682596.36541  23826895.88943  23826899.16941
      3629.563        2828.244
  21088937.168 3 -22693759.098 3 -17633515.19042  21088936.63143  21088940.19542
      -333.651        -259.982
  23309248.426 3 -11289494.366 3  -8773663.45642  23309248.41243  23309251.26942
     -2361.640       -1840.242
  25348298.989 3  -1924349.807 3  -1456034.14441  25348298.09043  25348302.83141
     -2750.646       -2143.352
  24492642.513 3  -2889232.787 3  -2204897.21941  24492642.32643  24492644.82841
      3647.746        2842.394
  24319341.620 3  -5027592.354 3  -3890258.02041  24319341.32843  24319342.21741
       827.200         644.586
  21083838.518 4 -21003186.030 4 -16309571.93242  21083838.47644  21083841.02442
     -1258.478        -980.622
 04  2  2  1 11  0.0000000  0 11G13G 8G21G29G26G10G17G 2G28G 3G27
  23523775.665 3  -9996483.692 3  -7730743.43242  23523776.78943  23523777.35742
     -3389.141       -2640.872
  20477942.279 4 -28062571.805 4 -21806371.16942  20477942.04244  20477945.10342
      1295.864        1009.764
  24574206.331 3  -3225596.767 3  -2479603.57841  24574206.07543  24574205.87741
      1897.906        1478.885
  22876632.752 3 -11374453.777 3  -8814214.71042  22876633.52343  22876634.68242
      2907.494        2265.567
  23816540.804 3  -4851743.932 3  -3725003.26742  23816541.12543  23816542.83842
      3627.269        2826.451
  21089905.125 3 -22688671.733 3 -17629551.01742  21089904.71143  21089908.12742
      -344.114        -268.124
  23316001.998 3 -11254007.583 3  -8746011.44442  23316001.70743  23316005.21042
     -2369.279       -1846.195
  25356156.669 3  -1883054.825 3  -1423856.24741  25356156.76443  25356160.43841
     -2754.793       -2146.591
  24482232.276 3  -2943936.007 3  -2247523.07541  24482232.33843  24482237.27641
      3646.388        2841.341
  24316993.641 3  -5039924.012 3  -3899867.11341  24316993.71743  24316996.90741
       817.664         637.147
  21087441.291 4 -20984254.208 4 -16294819.86542  21087441.26744  21087443.50642
     -1265.111        -985.795
 04  2  2  1 11 15.0000000  0 11G13G 8G21G29G26G10G17G 2G28G 3G27
  23533454.115 3  -9945619.336 3  -7691108.88242  23533456.34143  23533458.41442
     -3391.848       -2642.995
  20474256.543 4 -28081940.367 4 -21821463.54842  20474256.20944  20474259.13842
      1287.439        1003.193
  24568801.983 3  -3253996.848 3  -2501733.51541  24568801.94943  24568801.73141
      1889.620        1472.438
  22868339.043 3 -11418035.968 3  -8848174.86242  22868338.98443  22868341.44542
      2904.356        2263.131
  23806191.013 3  -4906129.923 3  -3767381.98442  23806191.23043  23806193.19542
      3624.974        2824.655
  21090902.655 3 -22683430.321 3 -17625466.80242  21090902.05343  21090905.29142
      -354.150        -275.965
  23322775.456 3 -11218407.530 3  -8718271.16442  23322775.08643  23322778.17642
     -2376.612       -1851.910
  25364026.526 3  -1841702.347 3  -1391633.54841  25364025.83543  25364028.99241
     -2758.085       -2149.171
  24471827.809 3  -2998613.340 3  -2290128.76441  24471826.97443  24471831.52941
      3645.022        2840.286
  24314674.814 3  -5052115.827 3  -3909367.22541  24314674.39843  24314675.24441
       808.656         630.127
  21091062.523 4 -20965224.822 4 -16279991.77242  21091062.25744  21091064.87942
     -1271.403        -990.716
 04  2  2  1 11 30.0000000  0 11G13G 8G21G29G26G10G17G 2G28G 3G27
  23543141.658 3  -9894711.288 3  -7651440.29942  23543142.75243  23543144.24342
     -3395.482       -2645.832
  20470595.891 4 -28101179.227 4 -21836454.86442  20470595.16644  20470597.99942
      1278.309         996.094
  24563422.582 3  -3282268.482 3  -2523763.37741  24563422.13943  24563424.60441
      1880.627        1465.420
  22860055.877 3 -11461566.636 3  -8882094.86142  22860055.91343  22860059.08742
      2900.196        2259.909
  23795848.023 3  -4960479.594 3  -3809732.38442  23795848.76043  23795851.04242
      3622.321        2822.580
  21091929.685 4 -22678034.779 4 -17621262.48742  21091929.13544  21091932.06142
      -364.832        -284.276
  23329571.646 3 -11182694.831 3  -8690443.09842  23329571.23243  23329574.99042
     -2384.536       -1858.067
  25371906.600 3  -1800292.601 3  -1359366.22541  25371906.85743  25371908.65041
     -2762.569       -2152.655
  24461428.785 3  -3053264.348 3  -2332713.95441  24461427.26743  24461431.66241
      3642.876        2838.606
  24312380.724 3  -5064167.570 3  -3918758.20641  24312380.49743  24312382.95741
       798.693         622.358
  21094702.015 4 -20946097.966 4 -16265087.72842  21094702.09144  21094704.51742
     -1278.385        -996.137
 04  2  2  1 11 45.0000000  0 11G13G 8G21G29G26G10G17G 2G28G 3G27
  23552837.593 3  -9843759.732 3  -7611737.79542  23552837.10143  23552840.49442
     -3398.079       -2647.848
  20466959.438 4 -28120288.404 4 -21851345.12642  20466959.01744  20466961.62742
      1269.608         989.308
  24558066.565 3  -3310411.448 3  -2545692.98741  24558066.75143  24558067.15841
      1871.687        1458.461
  22851781.782 3 -11505045.681 3  -8915974.63942  22851781.83743  22851784.51642
      2896.728        2257.205
  23785511.987 3  -5014792.689 3  -3852054.26842  23785513.27643  23785516.88842
      3619.414        2820.316
  21092985.718 4 -22672485.143 4 -17616938.10042  21092984.96344  21092988.13842
      -375.190        -292.359
  23336389.114 3 -11146869.626 3  -8662527.39042  23336388.58243  23336390.85842
     -2392.229       -1864.060
  25379797.364 3  -1758825.912 3  -1327054.52141  25379796.11443  25379797.39241
     -2766.444       -2155.674
  24451033.358 3  -3107888.772 3  -2375278.42541  24451032.68043  24451036.96841
      3640.873        2837.061
  24310113.651 3  -5076079.211 3  -3928040.04041  24310113.86443  24310116.55941
       789.292         615.038
  21098359.909 4 -20926873.738 4 -16250107.80942  21098359.85344  21098362.62542
     -1285.021       -1001.309
 04  2  2  1 12  0.0000000  0 11G13G 8G21G29G26G10G17G 2G28G 3G27
  23562541.619 3  -9792764.685 3  -7572001.40642  23562542.60743  23562544.85242
     -3400.854       -2650.038
  20463347.555 4 -28139267.788 4 -21866134.24842  20463347.44244  20463350.13942
      1261.189         982.739
  24552735.198 3  -3338425.283 3  -2567521.96641  24552735.61543  24552737.29541
      1863.345        1451.956
  22843518.402 3 -11548472.804 3  -8949813.96042  22843517.73743  22843520.99542
      2893.594        2254.770
  23775184.226 3  -5069068.905 3  -3894347.42242  23775184.61643  23775186.68042
      3617.159        2818.557
  21094071.011 4 -22666781.389 4 -17612493.62442  21094070.38644  21094073.67242
      -385.161        -300.136
  23343227.284 3 -11110932.210 3  -8634524.24042  23343228.08543  23343230.48642
     -2399.550       -1869.781
  25387699.005 3  -1717302.448 3  -1294698.59941  25387697.11943  25387703.00741
     -2769.940       -2158.386
  24440643.946 3  -3162486.283 3  -2417821.92841  24440643.88443  24440646.90141
      3639.466        2835.949
  24307873.362 3  -5087850.519 3  -3937212.50741  24307873.27543  24307876.19241
       780.305         608.024
  21102037.032 4 -20907552.144 4 -16235052.01842  21102036.66944  21102039.72042
     -1291.163       -1006.112
 04  2  2  1 12 15.0000000  0 11G13G 8G21G29G26G10G17G 2G28G 3G27
  23572254.614 3  -9741726.544 3  -7532231.44542  23572254.68143  23572257.04842
     -3403.988       -2652.447
  20459760.711 4 -28158117.264 4 -21880822.14542  20459760.32744  20459763.25442
      1252.464         975.942
  24547429.315 3  -3366309.721 3  -2589250.07241  24547430.47543  24547430.40641
      1854.693        1445.210
  22835264.120 3 -11591847.708 3  -8983612.58742  22835262.76643  22835265.63342
      2890.044        2252.021
  23764862.948 3  -5123308.093 3  -3936611.71942  23764863.14943  23764866.54242
      3614.732        2816.673
  21095185.690 4 -22660923.523 4 -17607929.05742  21095185.16144  21095188.21942
      -395.497        -308.180
  23350088.132 3 -11074882.984 3  -8606433.95442  23350087.51343  23350089.96942
     -2407.007       -1875.592
  25395610.215 3  -1675722.447 3  -1262298.60541  25395609.96643  25395612.90441
     -2773.620       -2161.263
  24430259.251 3  -3217056.533 3  -2460344.18241  24430259.53443  24430263.02741
      3637.112        2834.112
  24305660.565 3  -5099481.253 3  -3946275.41841  24305660.94443  24305662.11641
       770.785         600.605
  21105731.984 4 -20888133.469 4 -16219920.58342  21105732.00944  21105734.52842
     -1297.716       -1011.217
 04  2  2  1 12 30.0000000  0 11G13G 8G21G29G26G10G17G 2G28G 3G27
  23581974.880 3  -9690645.337 3  -7492427.92042  23581974.43643  23581976.89642
     -3406.212       -2654.187
  20456198.332 4 -28176836.710 4 -21895408.71842  20456198.07544  20456200.98442
      1244.120         969.464
  24542148.061 3  -3394064.654 3  -2610877.27741  24542146.95643  24542148.30941
      1846.555        1438.872
  22827020.008 3 -11635170.354 3  -9017370.48542  22827019.77743  22827021.94342
      2886.810        2249.468
  23754548.341 3  -5177510.095 3  -3978847.04541  23754549.08943  23754550.49241
      3612.609        2815.024
  21096330.055 4 -22654911.759 4 -17603244.57242  21096329.43144  21096332.11542
      -405.488        -315.950
  23356969.243 3 -11038722.370 3  -8578256.88342  23356969.58743  23356971.55042
     -2413.805       -1880.890
  25403533.559 3  -1634086.254 3  -1229854.84141  25403532.56043  25403536.58141
     -2777.275       -2164.124
  24419880.821 3  -3271599.371 3  -2502845.08241  24419880.73343  24419884.52741
      3636.165        2833.371
  24303473.949 3  -5110971.443 3  -3955228.79641  24303472.99843  24303476.30341
       761.848         593.653
  21109446.048 4 -20868617.895 4 -16204713.64742  21109445.82844  21109448.33242
     -1303.792       -1015.923
 04  2  2  1 12 45.0000000  0 11G13G 8G21G29G26G10G17G 2G28G 3G27
  23591703.412 3  -9639521.235 3  -7452590.97642  23591704.14543  23591705.32542
     -3409.532       -2656.783
  20452660.862 4 -28195426.090 4 -21909893.94442  20452660.66244  20452663.62042
      1235.404         962.654
  24536891.790 3  -3421689.754 3  -2632403.33841  24536890.58443  24536891.44341
      1837.457        1431.781
  22818785.656 3 -11678440.606 3  -9051087.56842  22818785.64143  22818788.79442
      2883.269        2246.706
  23744241.881 3  -5231674.615 3  -4021053.18541  23744242.29843  23744243.56741
      3610.504        2813.385
  21097502.969 4 -22648745.943 4 -17598440.04442  21097502.47644  21097505.37042
      -415.827        -324.019
  23363871.328 3 -11002450.741 3  -8549993.25442  23363870.94843  23363875.21242
     -2421.434       -1886.825
  25411467.027 3  -1592394.108 3  -1197367.45341  25411466.39843  25411471.07541
     -2780.519       -2166.644
  24409506.490 3  -3326114.345 3  -2545324.28741  24409506.51243  24409508.40441
      3633.762        2831.504
  24301314.639 3  -5122320.857 3  -3964072.47241  24301314.51643  24301316.31541
       752.592         586.437
  21113177.964 4 -20849005.489 4 -16189431.25042  21113178.06644  21113180.45742
     -1310.286       -1021.002
 04  2  2  1 13  0.0000000  0 11G13G 8G21G29G26G10G17G 2G28G 3G27
  23601440.010 3  -9588354.529 3  -7412720.81942  23601440.10643  23601442.42342
     -3412.236       -2658.863
  20449148.256 4 -28213885.371 4 -21924277.79642  20449148.02644  20449151.01142
      1226.215         955.493
  24531659.604 3  -3449184.787 3  -2653828.05541  24531659.33843  24531660.74041
      1828.505        1424.815
  22810562.373 3 -11721658.246 3  -9084763.63942  22810562.40743  22810563.50542
      2879.362        2243.667
  23733941.784 3  -5285801.454 3  -4063229.98042  23733942.32543  23733943.86142
      3607.283        2810.874
  21098705.780 4 -22642426.114 4 -17593515.51142  21098705.18044  21098708.06642
      -426.573        -332.398
  23370793.680 3 -10966068.333 3  -8521643.33342  23370793.63443  23370797.20142
     -2429.104       -1892.788
  25419413.780 3  -1550646.244 3  -1164836.67041  25419412.46643  25419412.46741
     -2784.914       -2170.070
  24399138.273 3  -3380601.179 3  -2587781.56141  24399137.88843  24399140.73841
      3631.548        2829.780
  24299181.331 3  -5133529.377 3  -3972806.36841  24299180.88743  24299182.71341
       742.343         578.443
  21116928.779 4 -20829296.338 4 -16174073.46942  21116928.64544  21116930.92742
     -1317.241       -1026.418
 04  2  2  1 13 15.0000000  0 11G13G 8G21G29G26G10G17G 2G28G 3G27
  23611184.268 3  -9537145.247 3  -7372817.49242  23611183.99543  23611187.76442
     -3415.634       -2661.547
  20445660.494 4 -28232214.387 4 -21938560.14242  20445660.19944  20445662.88642
      1217.537         948.738
  24526452.161 3  -3476549.456 3  -2675151.16641  24526451.40343  24526454.14941
      1819.883        1418.094
  22802348.608 3 -11764822.899 3  -9118398.43642  22802349.08443  22802350.06742
      2875.840        2240.919
  23723649.142 3  -5339890.436 3  -4105377.26542  23723649.42643  23723651.50542
      3604.592        2808.782
  21099937.824 4 -22635952.261 4 -17588470.95642  21099937.29544  21099940.12342
      -436.711        -340.292
  23377738.358 3 -10929575.518 3  -8493207.42642  23377738.49243  23377741.49542
     -2436.568       -1898.612
  25427368.397 3  -1508842.948 3  -1132262.66841  25427368.48643  25427369.73741
     -2789.015       -2173.263
  24388774.601 3  -3435059.633 3  -2630216.71641  24388773.92043  24388778.72541
      3629.800        2828.426
  24297074.715 3  -5144596.867 3  -3981430.38741  24297075.77343  24297077.06541
       732.879         571.075
  21120697.440 4 -20809490.700 4 -16158640.50242  21120697.60244  21120699.93542
     -1323.639       -1031.391
 04  2  2  1 13 30.0000000  0 11G13G 8G21G29G26G10G17G 2G28G 3G27
  23620937.126 3  -9485893.664 3  -7332881.21942  23620938.01443  23620939.64642
     -3418.068       -2663.416
  20442197.131 4 -28250413.031 4 -21952740.89542  20442196.93444  20442199.92642
      1209.129         942.179
  24521269.263 3  -3503783.617 3  -2696372.56841  24521269.67043  24521269.29941
      1811.437        1411.510
  22794144.720 3 -11807934.589 3  -9151991.97542  22794144.75443  22794146.03442
      2872.471        2238.300
  23713364.335 3  -5393941.286 3  -4147494.82942  23713364.08543  23713365.28342
      3602.329        2807.011
  21101198.766 4 -22629324.523 4 -17583306.49342  21101198.34944  21101201.42742
      -446.816        -348.168
  23384703.885 3 -10892972.770 3  -8464685.82542  23384702.85243  23384706.87042
     -2443.210       -1903.795
  25435333.231 3  -1466984.369 3  -1099645.59741  25435332.31843  25435336.96241
     -2792.302       -2175.825
  24378416.847 3  -3489489.283 3  -2672629.41341  24378415.71343  24378420.06841
      3627.632        2826.721
  24294996.083 3  -5155523.334 3  -3989944.50441  24294996.57843  24294998.79441
       723.617         563.845
  21124484.992 4 -20789588.629 4 -16143132.39842  21124484.90344  21124487.26142
     -1329.805       -1036.209
 04  2  2  1 13 45.0000000  0 11G13G 8G21G29G26G10G17G 2G28G 3G27
  23630698.976 3  -9434599.883 3  -7292912.04442  23630698.16643  23630700.60442
     -3420.880       -2665.620
  20438758.924 4 -28268481.120 4 -21966819.92042  20438758.77444  20438761.44742
      1200.225         935.243
  24516111.996 3  -3530887.042 3  -2717492.11141  24516110.92943  24516112.85441
      1802.612        1404.631
  22785950.811 3 -11850993.135 3  -9185544.08742  22785951.13143  22785951.44542
      2868.786        2235.409
  23703086.210 3  -5447953.786 3  -4189582.50042  23703085.87443  23703087.65842
      3599.784        2805.031
  21102489.248 4 -22622542.894 4 -17578022.10842  21102489.01244  21102492.08942
      -457.253        -356.290
  23391689.622 3 -10856260.316 3  -8436078.71142  23391689.82643  23391693.71942
     -2450.885       -1909.787
  25443308.555 3  -1425070.842 3  -1066985.70041  25443308.24343  25443311.13641
     -2795.684       -2178.456
  24368065.416 3  -3543889.808 3  -2715019.41941  24368066.01543  24368068.20341
      3625.616        2825.146
  24292943.631 3  -5166308.521 3  -3998348.55641  24292944.56643  24292944.65641
       714.456         556.719
  21128290.408 4 -20769590.130 4 -16127549.15042  21128290.33644  21128292.66742
     -1336.402       -1041.343
 04  2  2  1 14  0.0000000  0 11G13G 8G21G29G26G10G17G 2G28G 3G27
  23640467.376 3  -9383264.227 3  -7252910.24742  23640467.92143  23640469.89242
     -3423.213       -2667.456
  20435345.714 4 -28286418.735 4 -21980797.27142  20435345.31544  20435348.10042
      1192.047         928.874
  24510979.912 3  -3557859.510 3  -2738509.58741  24510978.43443  24510980.85641
      1794.346        1398.191
  22777766.714 3 -11893998.225 3  -9219054.56142  22777766.82043  22777769.41242
      2865.839        2233.123
  23692814.868 3  -5501927.746 3  -4231640.14242  23692815.25443  23692817.41042
      3597.553        2803.297
  21103809.112 4 -22615607.355 4 -17572617.79642  21103808.81344  21103811.70542
      -466.875        -363.797
  23398697.219 3 -10819438.452 3  -8407386.34442  23398697.09643  23398699.55442
     -2457.983       -1915.308
  25451295.169 3  -1383102.546 3  -1034283.14041  25451294.59643  25451297.49141
     -2799.008       -2181.045
  24357719.224 3  -3598260.928 3  -2757386.52841  24357718.71243  24357721.50341
      3624.200        2824.049
  24290918.060 3  -5176952.246 3  -4006642.38641  24290918.41143  24290918.82541
       705.386         549.639
  21132113.915 4 -20749495.546 4 -16111891.03042  21132113.98744  21132116.36742
     -1342.259       -1045.921
 04  2  2  1 14 15.0000000  0 11G13G 8G21G29G26G10G17G 2G28G 3G27
  23650244.618 3  -9331886.740 3  -7212875.84642  23650245.34543  23650246.54742
     -3426.001       -2669.612
  20431957.236 4 -28304225.810 4 -21994672.90642  20431956.86744  20431959.51642
      1183.311         922.064
  24505870.909 3  -3584700.662 3  -2759424.77341  24505871.23243  24505872.70741
      1785.201        1391.071
  22769593.552 3 -11936949.736 3  -9252523.27542  22769593.66743  22769596.10342
      2861.995        2230.120
  23682549.231 3  -5555863.026 3  -4273667.63042  23682551.23543  23682553.09442
      3594.930        2801.246
  21105158.418 4 -22608518.105 4 -17567093.70942  21105157.64544  21105160.94542
      -477.288        -371.913
  23405724.942 3 -10782507.924 3  -8378609.31542  23405724.91843  23405726.28142
     -2465.054       -1920.833
  25459292.343 3  -1341079.921 3  -1001538.23041  25459291.00243  25459293.73641
     -2802.609       -2183.854
  24347378.122 3  -3652602.377 3  -2799730.52841  24347377.95043  24347380.96441
      3622.176        2822.479
  24288920.266 3  -5187454.492 3  -4014825.96141  24288920.37843  24288921.77341
       696.161         542.473
  21135956.086 4 -20729305.047 4 -16096158.17442  21135956.05144  21135958.37942
     -1348.709       -1050.937
 04  2  2  1 14 30.0000000  0 11G13G 8G21G29G26G10G17G 2G28G 3G27
  23660028.633 3  -9280467.705 3  -7172809.06842  23660028.97743  23660030.26042
     -3428.868       -2671.834
  20428593.527 4 -28321902.119 4 -22008446.64242  20428593.03144  20428595.54542
      1174.646         915.306
  24500789.480 3  -3611410.333 3  -2780237.52641  24500788.47243  24500787.62341
      1776.771        1384.501
  22761430.261 3 -11979847.464 3  -9285950.07242  22761430.67143  22761432.24742
      2858.692        2227.569
  23672293.461 3  -5609759.263 3  -4315664.68542  23672293.91643  23672297.36742
      3592.174        2799.101
  21106536.716 4 -22601274.946 4 -17561449.69242  21106535.98344  21106539.07342
      -487.467        -379.843
  23412773.126 3 -10745468.744 3  -8349747.61742  23412772.81343  23412774.33742
     -2472.510       -1926.612
  25467299.053 3  -1299003.107 3   -968751.12441  25467299.53043  25467300.77141
     -2806.298       -2186.732
  24337042.932 3  -3706913.797 3  -2842051.10141  24337042.87743  24337046.81441
      3620.670        2821.287
  24286947.475 3  -5197814.980 3  -4022899.07741  24286946.07143  24286950.20041
       686.561         534.983
  21139816.356 4 -20709018.508 4 -16080350.48042  21139816.28544  21139819.08142
     -1354.971       -1055.814
 04  2  2  1 14 45.0000000  0 11G13G 8G21G29G26G10G17G 2G28G 3G27
  23669820.881 3  -9229007.058 3  -7132709.87742  23669820.73843  23669824.95542
     -3431.645       -2674.032
  20425254.459 4 -28339447.626 4 -22022118.45242  20425254.21644  20425256.90342
      1165.671         908.312
  24495731.252 3  -3637988.206 3  -2800947.56841  24495731.69843  24495731.35141
      1767.630        1377.382
  22753276.768 3 -12022691.079 3  -9319334.70242  22753277.29643  22753280.11242
      2854.439        2224.243
  23662045.796 3  -5663616.218 3  -4357631.12642  23662045.60643  23662049.07742
      3589.201        2796.786
  21107944.170 4 -22593877.941 4 -17555685.79542  21107943.72844  21107946.95342
      -497.927        -387.996
  23419841.804 3 -10708321.175 3  -8320801.46142  23419841.36243  23419844.74042
     -2479.705       -1932.237
  25475316.334 3  -1256872.266 3   -935921.90841  25475314.36243  25475318.95841
     -2810.107       -2189.689
  24326713.206 3  -3761194.778 3  -2884347.94441  24326713.34543  24326716.95441
      3618.149        2819.332
  24285003.112 3  -5208033.505 3  -4030861.58941  24285004.94243  24285005.49741
       676.673         527.282
  21143695.170 4 -20688636.162 4 -16064468.13442  21143695.18044  21143697.89242
     -1361.738       -1061.099
 04  2  2  1 15  0.0000000  0 11G13G 8G21G29G26G10G17G 2G28G 3G27
  23679621.472 3  -9177505.094 3  -7092578.49242  23679622.39543  23679624.43142
     -3434.656       -2676.362
  20421940.661 4 -28356862.211 4 -22035688.24842  20421940.24944  20421943.09842
      1156.783         901.393
  24490697.521 3  -3664434.209 3  -2821554.83941  24490697.11543  24490697.62641
      1758.929        1370.601
  22745134.795 3 -12065480.687 3  -9352677.24542  22745135.10443  22745137.33342
      2851.061        2221.602
  23651805.380 3  -5717433.853 3  -4399566.93841  23651805.44643  23651807.04541
      3586.541        2794.701
  21109381.019 4 -22586327.310 4 -17549802.19142  21109380.35944  21109383.46142
      -508.298        -396.074
  23426932.080 3 -10671065.876 3  -8291771.36642  23426930.74743  23426935.34242
     -2486.852       -1937.802
  25483342.562 3  -1214687.806 3   -903050.92141  25483343.59743  25483345.83441
     -2813.796       -2192.557
  24316390.503 3  -3815445.111 3  -2926620.90141  24316389.39143  24316392.91441
      3615.640        2817.376
  24283085.820 3  -5218110.125 3  -4038713.52141  24283086.02943  24283088.81541
       667.184         519.875
  21147592.182 4 -20668158.203 4 -16048511.28242  21147592.25444  21147594.71142
     -1368.235       -1066.153
 04  2  2  1 15 15.0000000  0 11G13G 8G21G29G26G10G17G 2G28G 3G27
  23689430.938 3  -9125962.009 3  -7052415.06542  23689430.21543  23689432.70442
     -3437.641       -2678.667
  20418651.671 4 -28374145.888 4 -22049156.04242  20418651.07444  20418654.13742
      1147.949         894.508
  24485690.251 3  -3690748.141 3  -2842059.20241  24485691.22943  24485692.42641
      1749.787        1363.473
  22737003.388 3 -12108215.869 3  -9385977.39442  22737001.94243  22737005.11242
      2847.294        2218.672
  23641570.966 3  -5771211.867 3  -4441471.89842  23641571.46543  23641573.11342
      3583.725        2792.520
  21110846.968 4 -22578623.060 4 -17543798.88442  21110846.27244  21110849.24542
      -518.779        -404.245
  23434041.085 3 -10633703.130 3  -8262657.55342  23434041.92643  23434044.07242
     -2494.499       -1943.760
  25491380.877 3  -1172449.953 3   -870138.33041  25491380.48143  25491385.86541
     -2817.574       -2195.494
  24306072.960 3  -3869664.465 3  -2968869.72741  24306072.49443  24306076.48241
      3613.357        2815.599
  24281194.796 3  -5228044.719 3  -4046454.75341  24281195.04343  24281197.50141
       657.738         512.523
  21151506.992 4 -20647584.860 4 -16032480.10742  21151507.06144  21151509.76442
     -1374.765       -1071.254
 04  2  2  1 15 30.0000000  0 11G13G 8G21G29G26G10G17G 2G28G 3G27
  23699246.438 3  -9074377.983 3  -7012219.72942  23699247.05643  23699249.37442
     -3440.205       -2680.684
  20415387.396 4 -28391298.467 4 -22062521.68042  20415387.19144  20415390.09442
      1139.177         887.665
  24480709.410 3  -3716929.588 3  -2862460.31641  24480709.10043  24480710.58241
      1740.785        1356.450
  22728880.896 3 -12150896.556 3  -9419235.08042  22728879.98643  22728882.62442
      2843.478        2215.688
  23631345.561 3  -5824950.033 3  -4483345.80542  23631345.64643  23631348.13742
      3581.529        2790.811
  21112342.630 4 -22570765.150 4 -17537675.83742  21112341.69644  21112344.63142
      -528.971        -412.192
  23441171.542 3 -10596233.209 3  -8233460.23742  23441170.43843  23441175.12342
     -2501.738       -1949.412
  25499428.184 3  -1130158.882 3   -837184.27741  25499428.46243  25499430.28041
     -2821.012       -2198.199
  24295761.250 3  -3923852.505 3  -3011094.16441  24295761.40243  24295763.89841
      3611.350        2814.040
  24279333.766 3  -5237837.067 3  -4054085.15041  24279333.09943  24279333.84041
       648.421         505.269
  21155440.105 4 -20626916.162 4 -16016374.62942  21155440.23244  21155442.58342
     -1381.078       -1076.174
 04  2  2  1 15 45.0000000  0 11G13G 8G21G29G26G10G17G 2G28G 3G27
  23709070.566 3  -9022753.128 3  -6971992.58542  23709072.09343  23709073.57342
     -3442.755       -2682.676
  20412148.395 4 -28408319.995 4 -22075785.19842  20412148.23944  20412150.92142
      1130.801         881.148
  24475752.062 3  -3742978.271 3  -2882757.99341  24475751.84743  24475753.59341
      1732.774        1350.214
  22720768.980 3 -12193522.442 3  -9452450.05542  22720768.91743  22720771.41642
      2840.187        2213.116
  23621127.202 3  -5878647.999 3  -4525188.37142  23621127.15043  23621128.70642
      3579.040        2788.856
  21113867.315 4 -22562753.442 4 -17531432.95442  21113866.65644  21113869.44542
      -538.903        -419.915
  23448321.528 3 -10558656.402 3  -8204179.62842  23448320.83643  23448325.46842
     -2508.363       -1954.569
  25507485.199 3  -1087814.841 3   -804188.93441  25507482.18843  25507489.47541
     -2824.072       -2200.579
  24285454.878 3  -3978008.862 3  -3053293.89441  24285454.94643  24285458.75841
      3609.730        2812.772
  24277496.990 3  -5247486.942 3  -4061604.54641  24277495.56143  24277497.88941
       639.030         497.953
  21159392.218 4 -20606152.190 4 -16000194.90942  21159391.62844  21159394.26142
     -1387.159       -1080.897
 04  2  2  1 16  0.0000000  0 11G13G 8G21G29G26G10G17G 2G28G 3G27
  23718902.288 3  -8971087.778 3  -6931733.88842  23718902.04043  23718905.55442
     -3445.079       -2684.458
  20408934.638 4 -28425210.380 4 -22088946.53142  20408934.04144  20408936.80942
      1121.964         874.262
  24470820.163 3  -3768894.130 3  -2902952.17241  24470820.46843  24470822.79441
      1723.915        1343.306
  22712667.604 3 -12236093.496 3  -9485622.29742  22712667.47843  22712670.64742
      2836.713        2210.437
  23610916.046 3  -5932305.705 3  -4566999.58342  23610916.75943  23610918.28742
      3576.302        2786.733
  21115420.920 4 -22554588.204 4 -17525070.43442  21115420.40544  21115423.16642
      -549.043        -427.816
  23455492.335 3 -10520973.276 3  -8174816.17142  23455492.57143  23455496.18042
     -2515.573       -1960.188
  25515552.881 3  -1045418.202 3   -771152.63141  25515552.57643  25515557.05041
     -2827.390       -2203.153
  24275154.827 3  -4032133.468 3  -3095468.87041  24275154.83243  24275158.20541
      3607.891        2811.338
  24275686.180 3  -5256994.453 3  -4069013.01841  24275686.83043  24275688.59841
       629.511         490.538
  21163360.805 4 -20585293.225 4 -15983941.17142  21163360.92044  21163363.45442
     -1393.381       -1085.744
 04  2  2  1 16 15.0000000  0 11G13G 8G21G29G26G10G17G 2G28G 3G27
  23728741.472 3  -8919381.955 3  -6891443.66242  23728742.19943  23728743.55342
     -3448.518       -2687.163
  20405745.223 4 -28441969.426 4 -22102005.52442  20405744.88444  20405747.72142
      1112.784         867.112
  24465914.505 3  -3794676.866 3  -2923042.60841  24465915.38543  24465916.06941
      1714.224        1335.761
  22704577.085 3 -12278609.400 3  -9518751.55842  22704577.53243  22704579.98342
      2832.421        2207.077
  23600713.408 3  -5985922.915 3  -4608779.24542  23600713.50343  23600714.10142
      3573.087        2784.224
  21117003.967 4 -22546269.471 4 -17518588.31742  21117003.31944  21117006.59442
      -559.706        -436.128
  23462683.547 3 -10483183.989 3  -8145369.97842  23462683.34943  23462687.85542
     -2522.786       -1965.809
  25523630.722 3  -1002969.141 3   -738075.44041  25523631.42943  25523635.45441
     -2831.912       -2206.685
  24264861.483 3  -4086225.900 3  -3137618.79241  24264861.87343  24264864.37041
      3605.050        2809.133
  24273904.138 3  -5266359.351 3  -4076310.33641  24273903.74343  24273907.99841
       619.395         482.640
  21167348.391 4 -20564339.310 4 -15967613.44542  21167348.11744  21167350.61442
     -1400.205       -1091.061
 04  2  2  1 16 30.0000000  0 11G13G 8G21G29G26G10G17G 2G28G 3G27
  23738588.474 3  -8867635.820 3  -6851122.01542  23738590.38943  23738590.51542
     -3451.360       -2689.371
  20402581.394 4 -28458597.088 4 -22114962.14242  20402580.80744  20402583.28042
      1104.117         860.352
  24461034.382 3  -3820326.255 3  -2943029.13941  24461034.14243  24461034.34041
      1705.622        1329.063
  22696497.941 3 -12321069.996 3  -9551837.74842  22696498.05443  22696499.42042
      2828.899        2204.322
  23590518.617 3  -6039499.304 3  -4650527.08342  23590518.06243  23590520.41042
      3570.520        2782.223
  21118615.976 4 -22537797.180 4 -17511986.54342  21118615.43144  21118618.60542
      -569.953        -444.112
  23469896.850 3 -10445288.942 3  -8115841.38342  23469894.85243  23469898.27742
     -2529.782       -1971.266
  25531719.517 3   -960467.877 3   -704957.59641  25531719.76543  25531721.93341
     -2835.282       -2209.307
  24254574.631 3  -4140285.708 3  -3179743.29741  24254574.85643  24254576.64041
      3602.785        2807.363
  24272149.416 3  -5275581.494 3  -4083496.42241  24272148.44743  24272151.56441
       609.912         475.255
  21171353.591 4 -20543290.545 4 -15951211.81242  21171353.42744  21171356.15442
     -1406.350       -1095.853
 04  2  2  1 16 45.0000000  0 11G13G 8G21G29G26G10G17G 2G28G 3G27
  23748443.455 3  -8815849.587 3  -6810769.11842  23748444.14243  23748445.24742
     -3453.407       -2690.968
  20399441.937 4 -28475093.297 4 -22127816.32442  20399441.73244  20399444.34542
      1095.619         853.735
  24456177.237 3  -3845841.993 3  -2962911.52941  24456176.66243  24456178.36941
      1696.739        1322.126
  22688429.008 3 -12363475.128 3  -9584880.70842  22688428.91343  22688431.22142
      2825.482        2201.685
  23580330.538 3  -6093034.681 3  -4692242.94842  23580330.32143  23580333.39542
      3568.255        2780.454
  21120257.496 4 -22529171.433 4 -17505265.18842  21120256.60344  21120259.93242
      -579.864        -451.836
  23477127.572 3 -10407288.600 3  -8086230.72942  23477125.96043  23477129.39842
     -2536.688       -1976.625
  25539817.278 3   -917914.657 3   -671799.24741  25539815.94843  25539819.77841
     -2838.334       -2211.674
  24244293.690 3  -4194312.690 3  -3221842.21041  24244294.05043  24244297.18141
      3600.964        2805.949
  24270422.286 3  -5284660.855 3  -4090571.25541  24270421.67243  24270424.96741
       600.643         468.038
  21175377.278 4 -20522147.219 4 -15934736.48942  21175377.07744  21175379.68242
     -1412.486       -1100.638
 04  2  2  1 17  0.0000000  0 11G13G 8G21G29G26G10G17G 2G28G 3G27
  23758305.112 3  -8764023.430 3  -6770385.11042  23758305.14343  23758308.14742
     -3456.492       -2693.363
  20396327.946 4 -28491458.077 4 -22140568.09742  20396327.48944  20396330.33742
      1086.482         846.602
  24451347.795 3  -3871223.980 3  -2982689.71041  24451347.31443  24451349.28741
      1687.504        1314.939
  22680369.964 3 -12405824.518 3  -9617880.23642  22680369.99543  22680371.29542
      2821.125        2198.274
  23570151.829 3  -6146528.919 3  -4733926.75342  23570151.53843  23570154.03242
      3564.500        2777.529
  21121927.955 3 -22520392.327 3 -17498424.33342  21121927.26643  21121930.41242
      -590.491        -460.120
  23484377.056 3 -10369183.300 3  -8056538.30642  23484377.92943  23484380.77042
     -2544.285       -1982.554
  25547925.144 3   -875309.789 3   -638600.65041  25547923.50343  25547926.37241
     -2842.038       -2214.580
  24234019.486 3  -4248306.482 3  -3263915.26141  24234019.39143  24234022.80241
      3598.355        2803.905
  24268721.228 3  -5293597.278 3  -4097534.71241  24268720.98843  24268723.03041
       590.601         460.208
  21179418.552 4 -20500909.337 4 -15918187.49442  21179418.60244  21179420.82442
     -1419.207       -1105.872
 04  2  2  1 17 15.0000000  0 11G13G 8G21G29G26G10G17G 2G28G 3G27
  23768174.902 3  -8712157.544 3  -6729970.15542  23768175.99843  23768177.53342
     -3459.169       -2695.467
  20393239.004 4 -28507691.208 4 -22153217.28642  20393238.53044  20393241.20942
      1077.764         839.821
  24446543.830 3  -3896471.918 3  -3002363.42941  24446544.45143  24446543.39541
      1678.428        1307.873
  22672321.019 3 -12448118.126 3  -9650836.29442  22672320.52843  22672322.98542
      2817.652        2195.569
  23559979.137 3  -6199981.743 3  -4775578.29742  23559978.80543  23559982.18942
      3562.106        2775.670
  21123627.459 3 -22511459.856 3 -17491463.97142  21123626.98143  21123630.09642
      -600.647        -468.035
  23491649.510 3 -10330973.379 3  -8026764.35342  23491649.15243  23491652.06342
     -2550.850       -1987.667
  25556041.890 3   -832653.460 3   -605361.96241  25556041.30943  25556045.87041
     -2845.609       -2217.352
  24223751.529 3  -4302266.768 3  -3305962.21541  24223751.89543  24223754.00441
      3596.583        2802.529
  24267048.709 3  -5302390.572 3  -4104386.63241  24267047.84643  24267050.71241
       580.951         452.699
  21183478.140 4 -20479577.095 4 -15901564.96442  21183477.93544  21183480.71142
     -1425.396       -1110.692
 04  2  2  1 17 30.0000000  0 11G13G 8G21G29G26G10G17G 2G28G 3G27
  23778052.951 3  -8660252.092 3  -6689524.35442  23778053.48143  23778054.33742
     -3461.622       -2697.363
  20390174.708 4 -28523792.773 4 -22165763.95542  20390174.22644  20390177.38942
      1069.415         833.318
  24441763.607 3  -3921585.733 3  -3021932.63041  24441764.42143  24441763.92041
      1670.110        1301.383
  22664283.456 3 -12490355.695 3  -9683748.69042  22664283.54843  22664285.19842
      2814.325        2192.964
  23549815.905 3  -6253393.055 3  -4817197.49642  23549815.17343  23549817.89742
      3559.817        2773.880
  21125356.805 3 -22502374.136 3 -17484384.19342  21125356.00743  21125358.99842
      -610.491        -475.712
  23498940.922 3 -10292659.331 3  -7996909.27242  23498939.91443  23498942.45442
     -2557.354       -1992.729
  25564168.471 3   -789946.069 3   -572083.49141  25564168.30543  25564169.82241
     -2848.649       -2219.708
  24213489.014 3  -4356193.294 3  -3347982.86441  24213489.00043  24213491.51741
      3594.073        2800.574
  24265402.078 3  -5311040.782 3  -4111127.04741  24265402.16143  24265404.89341
       572.410         446.030
  21187555.147 4 -20458150.641 4 -15884869.02942  21187555.03544  21187557.80942
     -1431.247       -1115.260
 04  2  2  1 17 45.0000000  0 11G13G 8G21G29G26G10G17G 2G28G 3G27
  23787937.735 3  -8608307.214 3  -6649047.84942  23787937.46943  23787939.65042
     -3464.188       -2699.365
  20387135.908 4 -28539762.483 4 -22178207.88342  20387135.32544  20387138.21042
      1060.382         826.275
  24437010.856 3  -3946564.929 3  -3041396.93841  24437010.63443  24437012.53141
      1660.568        1293.942
  22656256.788 3 -12532536.931 3  -9716617.18542  22656257.10243  22656258.92742
      2810.243        2189.794
  23539659.570 3  -6306762.392 3  -4858783.99042  23539659.87343  23539661.40142
      3556.950        2771.647
  21127115.189 4 -22493135.112 4 -17477184.95742  21127114.55544  21127117.20542
      -620.860        -483.787
  23506250.722 3 -10254241.370 3  -7966973.24442  23506249.97443  23506253.90742
     -2564.683       -1998.454
  25572305.164 3   -747187.692 3   -538765.28141  25572305.20343  25572307.91241
     -2852.232       -2222.520
  24203232.854 3  -4410085.718 3  -3389976.92541  24203233.03643  24203236.54741
      3591.398        2798.502
  24263783.017 3  -5319547.622 3  -4117755.73141  24263783.22043  24263785.54641
       562.586         438.376
  21191650.392 4 -20436630.097 4 -15868099.77642  21191650.18144  21191653.13442
     -1437.744       -1120.309
 04  2  2  1 18  0.0000000  0 11G13G 8G21G29G26G10G17G 2G28G 3G27
  23797829.367 3  -8556323.200 3  -6608540.83542  23797830.23343  23797831.66842
     -3466.430       -2701.102
  20384121.919 4 -28555600.492 4 -22190549.18442  20384121.58444  20384124.40642
      1051.891         819.679
  24432282.601 3  -3971409.459 3  -3060756.29541  24432283.27743  24432283.38841
      1652.425        1287.600
  22648240.561 3 -12574661.696 3  -9749441.68442  22648240.82943  22648242.76742
      2806.756        2187.077
  23529511.636 3  -6360089.667 3  -4900337.71842  23529512.61443  23529514.30542
      3554.211        2769.517
  21128902.312 4 -22483742.928 4 -17469866.37942  21128901.91944  21128904.70942
      -630.857        -491.552
  23513579.365 3 -10215719.753 3  -7936956.41142  23513580.04043  23513584.08842
     -2571.166       -2003.504
  25580451.593 3   -704378.727 3   -505407.64441  25580450.03843  25580455.44441
     -2855.320       -2224.938
  24192984.646 3  -4463943.680 3  -3431944.12641  24192983.99243  24192988.38841
      3589.701        2797.175
  24262191.480 3  -5327911.047 3  -4124272.69242  24262191.57643  24262194.83242
       553.191         431.056
  21195763.766 4 -20415015.562 4 -15851257.28242  21195763.67644  21195766.16842
     -1443.707       -1124.944
 04  2  2  1 18 15.0000000  0 11G13G 8G21G29G26G10G17G 2G28G 3G27
  23807729.088 3  -8504300.275 3  -6568003.50142  23807729.25743  23807731.58442
     -3469.477       -2703.489
  20381132.900 4 -28571306.555 4 -22202787.66942  20381132.83144  20381135.57142
      1042.662         812.474
  24427580.957 3  -3996119.052 3  -3080010.50841  24427581.57743  24427581.76241
      1642.848        1280.140
  22640235.548 3 -12616729.878 3  -9782222.08442  22640236.11243  22640237.87742
      2802.676        2183.944
  23519371.323 3  -6413374.651 3  -4941858.49242  23519372.32843  23519374.55642
      3550.880        2766.919
  21130718.843 4 -22474197.638 4 -17462428.49642  21130718.09244  21130721.35042
      -641.415        -499.790
  23520931.206 3 -10177095.294 3  -7906859.47242  23520929.89943  23520934.00242
     -2578.355       -2009.107
  25588608.342 3   -661519.436 3   -472010.81941  25588606.70943  25588610.72141
     -2858.843       -2227.673
  24182742.629 3  -4517766.995 3  -3473884.33341  24182742.57043  24182745.11741
      3587.117        2795.157
  24260628.065 3  -5336131.046 3  -4130677.90142  24260627.53843  24260629.86142
       543.527         423.537
  21199894.407 4 -20393307.279 4 -15834341.73642  21199894.44144  21199897.17842
     -1450.419       -1130.186
 04  2  2  1 18 30.0000000  0 11G13G 8G21G29G26G10G17G 2G28G 3G27
  23817635.152 3  -8452238.331 3  -6527435.75642  23817635.14243  23817638.61042
     -3471.655       -2705.176
  20378169.630 4 -28586880.698 4 -22214923.35942  20378169.12344  20378171.91042
      1033.929         805.652
  24422905.135 3  -4020693.465 3  -3099159.39841  24422904.36043  24422905.92041
      1633.663        1272.986
  22632240.993 3 -12658741.216 3  -9814958.19342  22632241.47543  22632243.17042
      2798.864        2180.920
  23509240.530 3  -6466617.037 3  -4983346.06142  23509240.41543  23509241.09442
      3548.165        2764.805
  21132564.314 4 -22464499.114 4 -17454871.21142  21132563.65244  21132566.90342
      -651.722        -507.839
  23528299.909 3 -10138367.894 3  -7876682.31242  23528299.82343  23528303.80642
     -2585.246       -2014.470
  25596773.746 3   -618609.945 3   -438574.84841  25596773.49643  25596776.05141
     -2862.115       -2230.214
  24172507.157 3  -4571555.157 3  -3515797.15141  24172506.33243  24172509.82741
      3584.822        2793.370
  24259090.589 3  -5344207.341 3  -4136971.13642  24259090.40343  24259093.01642
       533.287         415.541
  21204043.548 4 -20371505.272 4 -15817353.16042  21204043.13344  21204046.11442
     -1456.648       -1135.052
 04  2  2  1 18 45.0000000  0 11G13G 8G21G29G26G10G17G 2G28G 3G27
  23827549.556 3  -8400137.764 3  -6486837.91142  23827550.14543  23827554.39342
     -3473.996       -2707.015
  20375231.217 4 -28602322.885 4 -22226956.23042  20375230.79644  20375233.36442
      1025.386         799.003
  24418253.764 3  -4045132.546 3  -3118202.83841  24418253.51443  24418255.45441
      1625.026        1266.266
  22624257.709 3 -12700695.505 3  -9847649.84942  22624257.37943  22624259.75842
      2795.268        2178.140
  23499116.840 3  -6519816.835 3  -5024800.45042  23499117.40643  23499118.74242
      3545.787        2762.947
  21134439.073 4 -22454647.520 4 -17447194.65242  21134438.26144  21134441.56742
      -661.691        -515.601
  23535688.601 3 -10099538.095 3  -7846425.35242  23535690.25243  23535692.24642
     -2591.863       -2019.630
  25604947.717 3   -575650.586 3   -405100.05041  25604949.34343  25604951.47241
     -2865.460       -2232.840
  24162278.396 3  -4625308.008 3  -3557682.45341  24162278.67843  24162280.92641
      3582.499        2791.548
  24257581.556 3  -5352140.054 3  -4143152.46742  24257580.93743  24257582.61442
       524.405         408.631
  21208209.970 4 -20349609.729 4 -15800291.69842  21208209.76844  21208212.63842
     -1462.663       -1139.721
 04  2  2  1 19  0.0000000  0 11G13G 8G21G29G26G10G17G 2G28G 3G27
  23837472.051 3  -8347998.654 3  -6446210.04842  23837472.39243  23837474.43742
     -3477.671       -2709.882
  20372317.573 4 -28617632.958 4 -22238886.15142  20372317.02944  20372319.85742
      1015.989         791.668
  24413628.654 3  -4069435.974 3  -3137140.56841  24413628.64143  24413631.77441
      1615.390        1258.749
  22616285.162 3 -12742592.594 3  -9880296.93442  22616284.91943  22616286.19642
      2790.897        2174.713
  23489001.739 3  -6572973.441 3  -5066221.18742  23489002.59143  23489004.18242
      3542.137        2760.118
  21136342.608 3 -22444642.908 3 -17439398.86242  21136342.23443  21136345.09442
      -672.387        -523.945
  23543096.656 3 -10060606.289 3  -7816088.89342  23543097.13443  23543101.70042
     -2599.011       -2025.202
  25613132.540 3   -532641.623 3   -371586.59841  25613132.06243  25613134.89241
     -2868.904       -2235.524
  24152055.996 3  -4679025.208 3  -3599539.97641  24152055.64243  24152059.06641
      3579.694        2789.367
  24256099.340 3  -5359928.807 3  -4149221.61642  24256099.85443  24256101.90142
       514.221         400.686
  21212394.246 4 -20327620.814 4 -15783157.48042  21212393.99444  21212396.95842
     -1469.238       -1144.874
 04  2  2  1 19 15.0000000  0 11G13G 8G21G29G26G10G17G 2G28G 3G27
  23847400.940 3  -8295821.238 3  -6405552.33942  23847400.87743  23847403.79242
     -3479.207       -2711.064
  20369429.319 4 -28632810.898 4 -22250713.11342  20369428.90944  20369431.55942
      1007.776         785.284
  24409030.505 3  -4093603.693 3  -3155972.55641  24409029.92143  24409030.74341
      1607.041        1252.246
  22608322.936 3 -12784432.346 3  -9912899.33242  22608322.02043  22608326.10642
      2787.850        2172.347
  23478894.354 3  -6626086.937 3  -5107608.32342  23478894.82343  23478895.63742
      3539.629        2758.147
  21138275.211 3 -22434485.360 3 -17431483.89342  21138275.17343  21138278.44342
      -681.954        -531.388
  23550525.975 3 -10021572.921 3  -7785673.32041  23550525.51943  23550528.33741
     -2605.207       -2030.020
  25621326.310 3   -489583.323 3   -338034.67241  25621325.16043  25621331.17441
     -2871.911       -2237.833
  24141840.304 3  -4732706.408 3  -3641369.44641  24141841.21043  24141843.67041
      3577.703        2787.813
  24254644.859 3  -5367573.654 3  -4155178.65442  24254644.33943  24254647.28642
       505.334         393.784
  21216595.996 3 -20305538.693 3 -15765950.63442  21216596.09343  21216598.78142
     -1474.920       -1149.284
 04  2  2  1 19 30.0000000  0 11G13G 8G21G29G26G10G17G 2G28G 3G27
  23857337.007 3  -8243605.595 3  -6364864.83842  23857337.74643  23857339.87942
     -3482.137       -2713.342
  20366566.211 4 -28647856.565 4 -22262437.00942  20366565.98844  20366568.58442
       999.006         778.451
  24404457.436 3  -4117635.347 3  -3174698.53741  24404457.70343  24404458.83941
      1597.885        1245.102
  22600372.352 3 -12826214.439 3  -9945456.81242  22600372.62943  22600374.24742
      2783.897        2169.273
  23468796.128 3  -6679156.960 3  -5148961.59542  23468795.73943  23468797.48842
      3537.008        2756.107
  21140237.635 4 -22424174.856 4 -17423449.74042  21140236.95244  21140240.24742
      -692.103        -539.304
  23557973.276 3  -9982438.036 3  -7755178.63441  23557971.89143  23557976.04741
     -2612.200       -2035.473
  25629529.502 3   -446475.867 3   -304444.43441  25629529.80643  25629531.49341
     -2875.026       -2240.296
  24131631.845 3  -4786351.243 3  -3683170.58342  24131631.66443  24131634.75942
      3575.305        2785.959
  24253215.838 3  -5375074.563 3  -4161023.53742  24253217.39443  24253220.76942
       495.805         386.346
  21220815.812 4 -20283363.437 4 -15748671.21542  21220815.78144  21220818.70142
     -1481.118       -1154.117
 04  2  2  1 19 45.0000000  0 11G13G 8G21G29G26G10G17G 2G28G 3G27
  23867281.047 3  -8191351.833 3  -6324147.64142  23867281.65043  23867283.14042
     -3484.674       -2715.334
  20363728.347 4 -28662769.990 4 -22274057.85842  20363727.83744  20363730.78342
       990.281         771.653
  24399910.797 3  -4141530.632 3  -3193318.23941  24399910.30343  24399910.48141
      1588.864        1238.068
  22592432.216 3 -12867938.704 3  -9977969.22842  22592432.46443  22592434.29242
      2780.048        2166.275
  23458704.880 3  -6732183.398 3  -5190280.89542  23458704.36643  23458707.12242
      3534.189        2753.921
  21142228.690 4 -22413711.574 4 -17415296.54242  21142228.09144  21142231.17442
      -702.158        -547.135
  23565438.404 3  -9943202.313 3  -7724605.36942  23565438.29143  23565442.82342
     -2618.693       -2040.535
  25637741.944 3   -403319.481 3   -270816.06241  25637740.98043  25637744.89041
     -2878.213       -2242.751
  24121430.698 3  -4839959.436 3  -3724943.18442  24121430.95243  24121433.46842
      3573.190        2784.301
  24251816.989 3  -5382431.262 3  -4166756.04742  24251816.55743  24251819.75842
       486.163         378.826
  21225053.515 3 -20261095.215 3 -15731319.35542  21225053.51643  21225055.99742
     -1487.228       -1158.878
 04  2  2  1 20  0.0000000  0 11G13G 8G21G29G26G10G17G 2G28G 3G27
  23877231.000 3  -8139060.196 3  -6283400.92842  23877231.80243  23877234.49142
     -3488.046       -2717.947
  20360915.422 4 -28677550.951 4 -22285575.48342  20360915.07544  20360917.85242
       981.119         764.511
  24395388.828 3  -4165289.557 3  -3211831.67441  24395388.90143  24395390.35341
      1579.412        1230.721
  22584502.384 3 -12909605.048 3 -10010436.51142  22584503.00843  22584505.04442
      2775.776        2162.969
  23448621.732 3  -6785165.974 3  -5231566.01842  23448622.29343  23448625.16842
      3530.562        2751.090
  21144248.942 4 -22403095.539 4 -17407024.31142  21144248.50644  21144251.37942
      -712.779        -555.417
  23572924.299 3  -9903866.157 3  -7693953.84942  23572924.19943  23572927.67242
     -2625.764       -2046.054
  25645964.050 3   -360114.516 3   -237149.85341  25645960.92243  25645968.41841
     -2881.693       -2245.467
  24111237.140 3  -4893530.676 3  -3766686.98042  24111236.78043  24111239.76642
      3570.149        2781.938
  24250444.402 3  -5389643.767 3  -4172376.17542  24250443.85743  24250447.94542
       475.924         370.855
  21229309.000 4 -20238734.219 4 -15713895.20142  21229308.71544  21229310.72842
     -1493.712       -1163.936
 04  2  2  1 20 15.0000000  0 11G13G 8G21G29G26G10G17G 2G28G 3G27
  23887189.555 3  -8086730.971 3  -6242624.93542  23887189.57343  23887192.61742
     -3489.716       -2719.247
  20358127.954 4 -28692199.662 4 -22296990.06242  20358127.76144  20358130.48742
       972.484         757.791
  24390894.508 3  -4188912.012 3  -3230238.76241  24390893.70743  24390894.43341
      1570.593        1223.847
  22576585.055 3 -12951213.328 3 -10042858.54542  22576584.89143  22576587.60242
      2772.124        2160.099
  23438548.291 3  -6838104.492 3  -5272816.80942  23438549.02343  23438550.52142
      3528.175        2749.229
  21146298.206 4 -22392326.889 4 -17398633.15942  21146297.87244  21146300.74242
      -722.697        -563.125
  23580428.932 3  -9864429.896 3  -7663224.31142  23580428.82843  23580433.19942
     -2632.307       -2051.146
  25654194.121 3   -316861.247 3   -203446.01941  25654193.18243  25654197.65241
     -2885.155       -2248.169
  24101050.037 3  -4947064.733 3  -3808401.80642  24101049.41143  24101052.58342
      3568.137        2780.370
  24249099.713 3  -5396712.034 3  -4177883.94142  24249099.66243  24249102.96842
       466.874         363.814
  21233581.496 3 -20216280.537 3 -15696398.82342  21233581.12343  21233584.20542
     -1499.775       -1168.635
 04  2  2  1 20 30.0000000  0 11G13G 8G21G29G26G10G17G 2G28G 3G27
  23897154.815 3  -8034364.204 3  -6201819.66442  23897154.99343  23897157.64942
     -3492.761       -2721.625
  20355365.772 4 -28706715.828 4 -22308301.35642  20355365.29344  20355368.21142
       963.244         750.589
  24386424.855 3  -4212397.401 3  -3248539.05341  24386423.42543  24386425.07241
      1561.241        1216.546
  22568678.838 3 -12992763.102 3 -10075234.99142  22568678.55543  22568681.12842
      2767.731        2156.695
  23428482.330 3  -6890998.616 3  -5314033.00642  23428482.10043  23428485.49542
      3524.634        2746.471
  21148376.286 3 -22381405.586 3 -17390123.05642  21148375.78543  21148378.64842
      -733.348        -571.437
  23587953.281 3  -9824893.678 3  -7632416.87542  23587952.21743  23587956.59142
     -2639.296       -2056.590
  25662434.202 3   -273559.808 3   -169704.65241  25662432.55643  25662438.72841
     -2888.513       -2250.805
  24090869.245 3  -5000561.214 3  -3850087.35442  24090869.09743  24090871.17642
      3564.731        2777.712
  24247781.635 3  -5403635.824 3  -4183279.11742  24247782.68243  24247784.48942
       456.665         355.848
  21237871.667 3 -20193734.311 3 -15678830.33942  21237871.57343  21237874.35942
     -1506.314       -1173.732
 04  2  2  1 20 45.0000000  0 11G13G 8G21G29G26G10G17G 2G28G 3G27
  23907127.027 3  -7981960.217 3  -6160985.40442  23907127.63343  23907129.63642
     -3495.289       -2723.609
  20352628.639 4 -28721099.386 4 -22319509.31942  20352628.20544  20352630.94142
       954.105         743.461
  24381980.232 3  -4235745.580 3  -3266732.41541  24381980.59543  24381981.98641
      1551.854        1209.229
  22560783.201 3 -13034254.381 3 -10107565.86242  22560783.06143  22560784.76542
      2763.867        2153.659
  23418426.357 3  -6943848.121 3  -5355214.43542  23418425.78843  23418428.17542
      3521.776        2744.248
  21150483.616 4 -22370331.766 4 -17381494.10842  21150483.32644  21150486.00342
      -743.678        -579.485
  23595495.290 3  -9785258.030 3  -7601531.96342  23595495.34743  23595499.12342
     -2645.881       -2061.731
  25670682.260 3   -230210.539 3   -135926.01241  25670681.61443  25670687.07941
     -2892.104       -2253.601
  24080697.184 3  -5054019.765 3  -3891743.34142  24080695.94743  24080698.75942
      3562.077        2775.638
  24246490.854 3  -5410415.024 3  -4188561.60142  24246492.46143  24246494.77042
       446.771         348.134
  21242180.126 3 -20171095.727 3 -15661189.88642  21242179.50043  21242182.34442
     -1512.609       -1178.653
 04  2  2  1 21  0.0000000  0 11G13G 8G21G29G26G10G17G 2G28G 3G27
  23917106.620 3  -7929519.022 3  -6120122.15842  23917106.31743  23917109.47642
     -3497.387       -2725.235
  20349916.609 4 -28735350.326 4 -22330613.94342  20349916.32144  20349919.09842
       945.705         736.902
  24377564.205 3  -4258956.390 3  -3284818.73841  24377563.94643  24377565.77041
      1543.115        1202.430
  22552898.048 3 -13075686.920 3 -10139850.95942  22552898.07843  22552900.13142
      2760.293        2150.863
  23408377.723 3  -6996652.893 3  -5396361.02142  23408377.74043  23408378.76242
      3518.884        2741.994
  21152620.207 4 -22359105.455 4 -17372746.33742  21152619.70344  21152622.70642
      -753.408        -587.074
  23603056.721 3  -9745523.415 3  -7570569.92642  23603055.88743  23603059.37542
     -2652.399       -2066.802
  25678941.295 3   -186813.705 3   -102110.30241  25678938.59943  25678943.85341
     -2894.558       -2255.492
  24070531.170 3  -5107440.088 3  -3933369.53542  24070530.58143  24070533.78642
      3560.379        2774.319
  24245229.247 3  -5417049.621 3  -4193731.39342  24245228.60143  24245231.50142
       437.292         340.753
  21246505.289 3 -20148364.825 3 -15643477.49842  21246505.42243  21246508.21542
     -1518.392       -1183.159
 04  2  2  1 21 15.0000000  0 11G13G 8G21G29G26G10G17G 2G28G 3G27
  23927092.460 3  -7877040.739 3  -6079230.01342  23927093.15143  23927095.40742
     -3500.053       -2727.314
  20347230.117 4 -28749468.602 4 -22341615.19042  20347229.46344  20347232.38142
       936.508         729.742
  24373174.331 3  -4282029.673 3  -3302797.92641  24373172.43643  24373174.84641
      1533.043        1194.574
  22545025.223 3 -13117060.436 3 -10172090.06342  22545026.13543  22545027.56042
      2755.852        2147.415
  23398337.860 3  -7049412.535 3  -5437472.44642  23398338.75943  23398340.39742
      3515.569        2739.407
  21154785.365 4 -22347726.725 4 -17363879.79342  21154784.74944  21154787.58342
      -764.077        -595.381
  23610637.659 3  -9705689.949 3  -7539530.86442  23610636.56843  23610639.09342
     -2659.022       -2071.967
  25687208.938 3   -143369.447 3    -68257.64641  25687208.54343  25687212.12241
     -2897.825       -2258.038
  24060373.586 3  -5160821.906 3  -3974965.71942  24060372.29043  24060376.13942
      3556.889        2771.598
  24243995.453 3  -5423539.416 3  -4198788.38442  24243994.34643  24243997.47842
       427.498         333.110
  21250848.589 3 -20125541.789 3 -15625693.31442  21250848.32043  21250851.25642
     -1524.970       -1188.291
 04  2  2  1 21 30.0000000  0 11G13G 8G21G29G26G10G17G 2G28G 3G27
  23937086.294 3  -7824525.737 3  -6038309.25042  23937085.71643  23937087.59142
     -3501.782       -2728.659
  20344568.656 4 -28763454.202 4 -22352513.05442  20344568.19144  20344571.11742
       928.507         723.525
  24368809.193 3  -4304965.527 3  -3320670.00841  24368808.61943  24368810.51941
      1524.948        1188.280
  22537163.690 3 -13158374.861 3 -10204283.12542  22537163.88643  22537165.86542
      2752.815        2145.069
  23388306.099 3  -7102127.095 3  -5478548.73442  23388306.36743  23388309.25242
      3513.345        2737.666
  21156979.448 4 -22336195.785 4 -17354894.64942  21156978.79644  21156982.01142
      -773.288        -602.556
  23618235.985 3  -9665758.381 3  -7508415.37042  23618235.49743  23618239.49842
     -2664.969       -2076.590
  25695484.985 3    -99878.144 3    -34368.33241  25695483.27343  25695487.78841
     -2900.615       -2260.213
  24050222.420 3  -5214164.915 3  -4016531.67042  24050223.19043  24050224.97642
      3555.314        2770.372
  24242786.646 3  -5429884.424 3  -4203732.55042  24242787.07543  24242790.32642
       418.574         326.167
  21255209.337 3 -20102626.923 3 -15607837.57742  21255209.41143  21255211.51642
     -1530.131       -1192.296
 04  2  2  1 21 45.0000000  0 11G13G 8G21G29G26G10G17G 2G28G 3G27
  23947086.621 3  -7771974.159 3  -5997359.97842  23947087.10143  23947089.41542
     -3504.913       -2731.105
  20341932.193 4 -28777306.966 4 -22363307.41142  20341932.08444  20341934.77142
       918.993         716.107
  24364470.449 3  -4327763.246 3  -3338434.45341  24364470.37543  24364472.60241
      1515.064        1180.569
  22529313.120 3 -13199629.886 3 -10236429.89242  22529313.08843  22529315.35342
      2748.143        2141.412
  23378282.321 3  -7154796.182 3  -5519589.58142  23378283.51743  23378286.09042
      3509.777        2734.887
  21159202.840 3 -22324512.522 3 -17345790.81542  21159202.10343  21159205.48742
      -784.128        -611.009
  23625853.242 3  -9625728.779 3  -7477223.50242  23625851.92143  23625857.13042
     -2671.934       -2082.036
  25703769.022 3    -56339.902 3      -442.42741  25703768.23243  25703774.54241
     -2903.802       -2262.700
  24040078.867 3  -5267468.679 3  -4058067.04842  24040078.62643  24040081.48642
      3552.021        2767.807
  24241606.803 3  -5436084.463 3  -4208563.74542  24241607.30343  24241609.71242
       408.583         318.368
  21259587.495 3 -20079620.131 3 -15589910.20542  21259587.14643  21259589.82842
     -1536.912       -1197.585
 04  2  2  1 22  0.0000000  0 11G13G 8G21G29G26G10G17G 2G28G 3G27
  23957093.816 3  -7719386.178 3  -5956382.33642  23957094.60643  23957097.12042
     -3506.821       -2732.595
  20339321.639 4 -28791026.969 4 -22373998.31942  20339321.36044  20339323.94142
       910.244         709.278
  24360158.294 3  -4350422.983 3  -3356091.39441  24360158.99743  24360160.09841
      1506.037        1173.537
  22521473.722 3 -13240825.479 3 -10268530.35242  22521474.03943  22521476.54942
      2744.394        2138.493
  23368268.742 3  -7207419.695 3  -5560594.88642  23368269.60543  23368272.76642
      3506.285        2732.161
  21161454.995 4 -22312677.088 4 -17336568.40242  21161454.60644  21161457.36942
      -794.143        -618.825
  23633487.991 3  -9585601.710 3  -7445955.67042  23633487.67443  23633491.79842
     -2678.556       -2087.188
  25712062.686 3    -12755.100 3     33519.75441  25712063.60943  25712068.11741
     -2907.382       -2265.486
  24029942.327 3  -5320733.127 3  -4099571.78542  24029942.67943  24029946.07042
      3549.718        2766.021
  24240453.760 3  -5442139.556 3  -4213282.00341  24240454.81743  24240457.14641
       398.790         310.735
  21263982.450 3 -20056521.691 3 -15571911.42242  21263982.52243  21263985.53642
     -1542.965       -1202.316
 04  2  2  1 22 15.0000000  0 11G13G 8G21G29G26G10G17G 2G28G 3G27
  23967107.661 3  -7666761.765 3  -5915376.29842  23967107.87743  23967109.71342
     -3510.187       -2735.214
  20336736.225 4 -28804613.964 4 -22384585.58742  20336735.81044  20336738.75742
       901.045         702.109
  24355874.684 3  -4372944.226 3  -3373640.41641  24355874.22343  24355873.83041
      1496.364        1165.979
  22513646.323 3 -13281961.309 3 -10300584.24142  22513647.11543  22513648.48042
      2740.152        2135.186
  23358265.162 3  -7259997.094 3  -5601564.27942  23358265.75443  23358267.48742
      3503.450        2729.963
  21163736.360 4 -22300689.424 4 -17327227.37142  21163735.55244  21163738.95442
      -804.582        -626.945
  23641142.463 3  -9545377.477 3  -7414612.14542  23641143.01043  23641146.76842
     -2685.154       -2092.334
  25720364.794 3     30876.114 3     67518.07741  25720363.66343  25720372.22141
     -2911.020       -2268.307
  24019813.830 3  -5373957.669 3  -4141045.42542  24019814.21243  24019818.00042
      3546.401        2763.427
  24239331.210 3  -5448049.503 3  -4217887.15541  24239332.03143  24239332.37941
       388.789         302.964
  21268395.958 3 -20033331.701 3 -15553841.30342  21268395.69443  21268398.32842
     -1549.379       -1207.306
 04  2  2  1 22 30.0000000  0 11G13G 8G21G29G26G10G17G 2G28G 3G27
  23977129.062 3  -7614101.246 3  -5874342.12742  23977129.79943  23977130.84742
     -3511.900       -2736.539
  20334176.004 4 -28818067.956 4 -22395069.21442  20334175.72944  20334178.48042
       892.604         695.545
  24351613.835 3  -4395327.005 3  -3391081.52341  24351613.64243  24351614.89341
      1487.884        1159.393
  22505829.738 3 -13323037.139 3 -10332591.38742  22505829.20543  22505831.12842
      2736.498        2132.337
  23348269.459 3  -7312528.367 3  -5642497.75742  23348269.91243  23348271.75342
      3500.733        2727.849
  21166046.313 4 -22288549.735 4 -17317767.87742  21166045.67944  21166048.96742
      -814.275        -634.492
  23648815.637 3  -9505056.510 3  -7383193.23842  23648814.26243  23648819.05842
     -2691.419       -2097.207
  25728676.867 3     74553.423 3    101552.32941  25728677.00743  25728678.00941
     -2912.941       -2269.865
  24009693.516 3  -5427142.154 3  -4182487.84542  24009693.51843  24009696.55442
      3544.433        2761.897
  24238232.961 3  -5453814.290 3  -4222379.18341  24238233.12243  24238236.41941
       379.612         295.805
  21272826.222 4 -20010050.331 4 -15535699.97442  21272825.82644  21272828.71042
     -1554.992       -1211.676
 04  2  2  1 22 45.0000000  0 11G13G 8G21G29G26G10G17G 2G28G 3G27
  23987157.526 3  -7561404.829 3  -5833279.99142  23987157.74943  23987159.41242
     -3514.323       -2738.446
  20331641.011 4 -28831389.080 4 -22405449.30842  20331640.87344  20331643.33442
       883.726         688.614
  24347381.686 3  -4417571.076 3  -3408414.53741  24347380.98643  24347381.58541
      1478.055        1151.736
  22498024.985 3 -13364052.999 3 -10364551.80442  22498024.72443  22498025.62242
      2732.443        2129.177
  23338281.813 3  -7365013.368 3  -5683395.16542  23338281.50643  23338283.38242
      3497.409        2725.253
  21168385.277 3 -22276258.150 3 -17308190.02742  21168384.87043  21168388.07742
      -824.494        -642.465
  23656506.044 3  -9464639.103 3  -7351699.17842  23656506.71543  23656511.15542
     -2697.410       -2101.879
  25736997.974 3    118276.548 3    135622.28841  25736995.38643  25737002.24441
     -2916.446       -2272.561
  23999580.539 3  -5480286.283 3  -4223898.82642  23999580.38843  23999583.74542
      3541.564        2759.663
  24237163.472 3  -5459433.967 3  -4226758.12941  24237163.37143  24237167.19741
       369.719         288.101
  21277273.488 3 -19986677.861 3 -15517487.66042  21277273.61743  21277276.08042
     -1561.184       -1216.504
 04  2  2  1 23  0.0000000  0 12G31G13G 8G21G29G26G10G17G 2G28G 3G27
  24400792.973 3    -37109.778 3
      2500.267
  23997191.383 3  -7508672.615 3  -5792189.97742  23997192.68043  23997194.19942
     -3516.177       -2739.892
  20329131.517 4 -28844577.015 4 -22415725.61642  20329131.13144  20329134.10042
       874.906         681.745
  24343174.718 3  -4439676.175 3  -3425639.29241  24343174.42443  24343175.57041
      1469.318        1144.924
  22490230.893 3 -13405008.448 3 -10396465.14342  22490231.20343  22490233.33042
      2728.503        2126.109
  23328302.636 3  -7417451.689 3  -5724256.20142  23328303.99343  23328303.96042
      3494.358        2722.874
  21170753.310 4 -22263814.646 4 -17298493.79842  21170752.77444  21170755.59842
      -834.508        -650.268
  23664216.348 3  -9424125.623 3  -7320130.26842  23664216.74443  23664220.82442
     -2704.027       -2107.030
  25745327.811 3    162045.356 3    169727.86441  25745324.10243  25745331.08341
     -2919.068       -2274.607
  23989475.275 3  -5533389.694 3  -4265278.08042  23989474.03943  23989477.68142
      3539.098        2757.731
  24236122.286 3  -5464908.244 3  -4231023.81641  24236121.53443  24236124.28441
       360.096         280.597
  21281738.914 4 -19963214.276 4 -15499204.34942  21281738.35144  21281740.85842
     -1567.175       -1221.185
 04  2  2  1 23 15.0000000  0 12G31G13G 8G21G29G26G10G17G 2G28G 3G27
  24393665.965 3    -74562.731 3
      2492.766
  24007232.504 3  -7455904.827 3  -5751072.24642  24007233.45243  24007234.10642
     -3519.321       -2742.323
  20326647.364 4 -28857631.899 4 -22425898.24942  20326646.59944  20326649.69442
       865.539         674.435
  24338994.801 3  -4461642.208 3  -3442755.66641  24338995.94743  24338995.02041
      1459.427        1137.212
  22482448.904 3 -13445903.506 3 -10428331.41942  22482449.38843  22482451.02742
      2723.921        2122.538
  23318333.539 3  -7469843.228 3  -5765080.78142  23318333.71943  23318334.63342
      3490.795        2720.102
  21173149.872 4 -22251219.420 4 -17288679.34642  21173149.12844  21173152.51842
      -845.120        -658.535
  23671944.703 3  -9383516.565 3  -7288486.87842  23671945.15043  23671948.13442
     -2710.680       -2112.225
  25753664.665 3    205859.525 3    203868.77941  25753660.83543  25753669.59541
     -2922.983       -2277.672
  23979377.858 3  -5586452.013 3  -4306625.31342  23979377.80043  23979380.43042
      3535.663        2755.059
  24235108.288 3  -5470237.216 3  -4235176.25941  24235107.97943  24235111.00041
       349.918         272.651
  21286221.145 4 -19939659.661 4 -15480850.10642  21286220.70344  21286223.16742
     -1573.666       -1226.246
 04  2  2  1 23 30.0000000  0 12G31G13G 8G21G29G26G10G17G 2G28G 3G27
  24386557.518 3   -111915.180 3    -53242.19441  24386557.17343  24386561.01541
      2486.517        1937.556
  24017280.684 3  -7403101.564 3  -5709926.86242  24017280.88643  24017283.29042
     -3521.858       -2744.307
  20324188.318 4 -28870553.552 4 -22435967.06442  20324187.76044  20324190.82842
       856.779         667.616
  24334840.763 3  -4483469.028 3  -3459763.56241  24334839.61743  24334842.34141
      1450.130        1129.973
  22474678.626 3 -13486737.955 3 -10460150.46642  22474678.01043  22474681.57442
      2719.883        2119.388
  23308372.653 3  -7522187.679 3  -5805868.67342  23308372.17143  23308374.08642
      3488.017        2717.926
  21175575.662 3 -22238472.504 3 -17278746.68942  21175575.27543  21175578.16642
      -855.068        -666.296
  23679691.065 3  -9342812.348 3  -7256769.34642  23679690.05343  23679692.60642
     -2717.161       -2117.268
  25762009.641 3    249718.752 3    238044.79441  25762012.32343  25762015.70741
     -2925.572       -2279.673
  23969288.657 3  -5639472.950 3  -4347940.31242  23969288.59143  23969290.53542
      3532.797        2752.823
  24234122.204 3  -5475420.655 3  -4239215.31141  24234122.13543  24234123.84341
       340.284         265.158
  21290720.452 3 -19916014.303 3 -15462425.14942  21290720.47343  21290722.72342
     -1579.553       -1230.827
 04  2  2  1 23 45.0000000  0 12G31G13G 8G21G29G26G10G17G 2G28G 3G27
  24379469.034 3   -149166.773 3    -82269.42141  24379470.17243  24379472.59441
      2480.150        1932.580
  24027335.507 3  -7350262.978 3  -5668753.95742  24027335.53043  24027338.39042
     -3524.176       -2746.102
  20321754.581 4 -28883341.960 4 -22445932.05442  20321754.26344  20321757.29342
       848.088         660.849
  24330713.962 3  -4505156.313 3  -3476662.73141  24330714.16343  24330714.52041
      1441.309        1123.102
  22466919.292 3 -13527511.306 3 -10491921.91042  22466919.66143  22466922.21742
      2716.027        2116.390
  23298420.148 3  -7574484.856 3  -5846619.73842  23298420.14943  23298421.13342
      3485.130        2715.683
  21178030.144 3 -22225573.916 3 -17268695.84742  21178029.84943  21178032.59142
      -865.005        -674.026
  23687453.597 3  -9302013.034 3  -7224977.69842  23687453.77943  23687457.11442
     -2723.139       -2121.921
  25770363.293 2    293622.822 2    272255.72241  25770364.60942  25770369.54941
     -2928.945       -2282.300
  23959206.247 3  -5692452.276 3  -4389222.89342  23959205.97043  23959209.30842
      3530.467        2751.017
  24233163.057 3  -5480458.533 3  -4243140.93141  24233162.77243  24233165.39541
       330.776         257.744
  21295237.137 3 -19892278.245 3 -15443929.52342  21295236.92743  21295239.83742
     -1585.511       -1235.466
 04  2  2  1 24  0.0000000  0 12G31G13G 8G21G29G26G10G17G 2G28G 3G27
  24372400.268 3   -186317.145 3   -111217.77141  24372400.76443  24372404.26941
      2473.752        1927.606
  24037396.793 3  -7297389.392 3  -5627553.77342  24037396.84143  24037398.40642
     -3525.591       -2747.213
  20319346.473 4 -28895997.149 4 -22455793.23542  20319346.12344  20319348.98742
       839.646         654.275
  24326613.262 3  -4526703.889 3  -3493453.02841  24326612.09943  24326615.04041
      1432.400        1116.169
  22459171.957 3 -13568223.716 3 -10523645.86242  22459172.84643  22459174.24342
      2712.602        2113.708
  23288477.380 3  -7626734.534 3  -5887333.77042  23288476.96143  23288479.73242
      3482.147        2713.370
  21180513.693 4 -22212523.813 4 -17258526.94442  21180513.16644  21180515.81542
      -874.570        -681.476
  23695236.191 3  -9261119.354 3  -7193112.52242  23695234.80943  23695239.60842
     -2728.754       -2126.300
  25778726.654 2    337571.428 2    306501.36841  25778725.50442  25778731.65341
     -2930.944       -2283.856
  23949132.298 3  -5745389.632 3  -4430472.76042  23949133.33843  23949135.86442
      3528.014        2749.102
  24232232.397 3  -5485350.858 3  -4246953.12241  24232232.69943  24232235.09141
       321.736         250.703
  21299771.384 3 -19868451.758 3 -15425363.43242  21299771.09543  21299773.76542
     -1591.003       -1239.733
 04  2  2  1 24 15.0000000  0 12G31G13G 8G21G29G26G10G17G 2G28G 3G27
  24365350.022 3   -223365.833 3   -140086.88341  24365349.23243  24365352.21741
      2466.194        1921.726
  24047464.900 3  -7244480.867 3  -5586326.36542  24047464.84143  24047468.03942
     -3528.765       -2749.686
  20316963.486 4 -28908518.974 4 -22465550.49742  20316963.38044  20316965.92142
       830.186         646.903
  24322540.937 3  -4548111.487 3  -3510134.23741  24322540.24043  24322540.97241
      1422.386        1108.347
  22451436.213 3 -13608874.809 3 -10555322.03642  22451436.17843  22451439.43842
      2707.978        2110.091
  23278542.660 3  -7678936.326 3  -5928010.49742  23278542.96643  23278546.05042
      3478.583        2710.584
  21183025.663 3 -22199322.249 3 -17248240.02042  21183025.16543  21183028.48442
      -885.237        -689.793
  23703035.788 3  -9220131.558 3  -7161174.02942  23703035.33543  23703039.62542
     -2735.808       -2131.801
  25787098.601 3    381564.555 3    340781.68841  25787098.36043  25787102.81641
     -2934.979       -2286.951
  23939066.952 3  -5798284.643 3  -4471689.61742  23939066.60243  23939070.85242
      3524.635        2746.469
  24231329.439 3  -5490097.378 3  -4250651.72041  24231330.06743  24231331.30441
       311.304         242.572
  21304322.511 4 -19844534.854 4 -15406726.88542  21304322.54244  21304324.64842
     -1597.572       -1244.858
 04  2  2  1 24 30.0000000  0 12G31G13G 8G21G29G26G10G17G 2G28G 3G27
  24358319.317 3   -260312.540 3   -168876.53241  24358319.48043  24358321.11341
      2460.198        1917.046
  24057539.915 3  -7191537.511 3  -5545071.81842  24057540.27143  24057542.02342
     -3530.853       -2751.322
  20314606.206 4 -28920907.463 4 -22475203.86142  20314605.99944  20314608.57342
       821.333         640.005
  24318493.297 3  -4569378.969 3  -3526706.28641  24318491.39243  24318494.02441
      1413.153        1101.150
  22443712.507 3 -13649464.407 3 -10586950.29342  22443712.73443  22443714.37242
      2703.895        2106.943
  23268617.671 3  -7731090.290 3  -5968649.92942  23268618.30443  23268621.56542
      3475.216        2707.966
  21185566.896 3 -22185969.347 3 -17237835.16942  21185566.37743  21185569.43042
      -895.321        -697.648
  23710852.991 3  -9179049.940 3  -7129162.42042  23710852.87343  23710856.01042
     -2741.966       -2136.594
  25795480.063 3    425601.691 3    375096.34541  25795479.07543  25795482.75341
     -2937.137       -2288.679
  23929010.477 3  -5851137.098 3  -4512873.31942  23929009.60543  23929011.37242
      3521.917        2744.355
  24230453.242 3  -5494698.065 3  -4254236.65941  24230453.48643  24230456.58141
       301.747         235.130
  21308891.442 4 -19820527.719 4 -15388020.02242  21308890.87844  21308893.17842
     -1603.640       -1249.584
 04  2  2  1 24 45.0000000  0 12G31G13G 8G21G29G26G10G17G 2G28G 3G27
  24351308.966 3   -297156.928 3   -197586.44341  24351307.76443  24351309.63041
      2452.775        1911.254
  24067620.811 3  -7138559.727 3  -5503790.43742  24067620.99843  24067623.23742
     -3533.033       -2753.005
  20312274.154 4 -28933162.453 4 -22484753.20142  20312273.63744  20312276.50942
       812.566         633.154
  24314471.916 3  -4590506.143 3  -3543169.00241  24314472.59443  24314473.82941
      1403.470        1093.611
  22436000.582 3 -13689992.384 3 -10618530.54042  22436000.84443  22436002.28642
      2699.701        2103.665
  23258703.565 3  -7783196.044 3  -6009251.79142  23258703.56943  23258705.25742
      3472.054        2705.492
  21188136.552 3 -22172465.165 3 -17227312.43442  21188135.60043  21188139.22942
      -905.313        -705.450
  23718688.673 3  -9137874.930 3  -7097078.01842  23718688.35043  23718691.88442
     -2748.222       -2141.474
  25803869.071 3    469682.673 3    409445.14441  25803867.18543  25803872.49641
     -2940.498       -2291.274
  23918960.681 3  -5903946.649 3  -4554023.62042  23918961.11743  23918963.92442
      3519.003        2742.077
  24229605.586 3  -5499152.931 3  -4257707.97541  24229606.15443  24229608.23241
       291.990         227.512
  21313476.726 4 -19796430.572 4 -15369243.02542  21313476.49244  21313478.75942
     -1609.475       -1254.157
 04  2  2  1 25  0.0000000  0 12G31G13G 8G21G29G26G10G17G 2G28G 3G27
  24344317.128 3   -333898.518 3   -226216.23841  24344316.69543  24344319.10141
      2444.828        1905.049
  24077708.427 3  -7085547.543 3  -5462482.24942  24077709.76043  24077709.57442
     -3536.128       -2755.426
  20309967.705 4 -28945284.033 4 -22494198.58742  20309967.16944  20309969.99042
       803.113         625.786
  24310478.059 3  -4611492.819 3  -3559522.25141  24310479.69343  24310480.66641
      1393.631        1085.945
  22428300.310 3 -13730458.449 3 -10650062.53742  22428299.82843  22428302.45442
      2695.101        2100.060
  23248797.777 3  -7835253.226 3  -6049815.83042  23248797.04243  23248800.14742
      3468.451        2702.688
  21190735.084 4 -22158809.788 4 -17216671.89642  21190734.33544  21190737.68242
      -916.029        -713.796
  23726542.338 3  -9096606.964 3  -7064921.18041  23726541.01043  23726544.37341
     -2755.298       -2146.986
  25812266.240 3    513807.276 3    443827.95541  25812266.71943  25812266.45941
     -2943.709       -2293.807
  23908920.511 3  -5956712.965 3  -4595140.22442  23908920.29143  23908921.87142
      3515.760        2739.556
  24228785.791 3  -5503461.786 3  -4261065.51941  24228784.96443  24228787.84841
       281.722         219.532
  21318079.109 4 -19772243.469 4 -15350395.93342  21318078.93944  21318081.63942
     -1616.128       -1259.334
 04  2  2  1 25 15.0000000  0 12G31G13G 8G21G29G26G10G17G 2G28G 3G27
  24337345.300 3   -370537.113 3   -254765.77541  24337345.77143  24337347.22041
      2439.148        1900.641
  24087803.550 3  -7032501.130 3  -5421147.38542  24087803.86843  24087805.96942
     -3537.752       -2756.695
  20307686.467 4 -28957272.250 4 -22503540.05242  20307685.90844  20307688.68342
       794.623         619.196
  24306513.324 3  -4632338.848 3  -3575765.90941  24306513.47243  24306513.47641
      1384.755        1079.031
  22420611.607 3 -13770862.555 3 -10681546.25442  22420611.16943  22420613.53342
      2691.350        2097.161
  23238900.632 3  -7887261.850 3  -6090342.03442  23238901.37243  23238903.23742
      3465.491        2700.390
  21193362.167 3 -22145003.425 3 -17205913.70742  21193361.57543  21193365.07342
      -925.577        -721.220
  23734412.426 3  -9055246.543 3  -7032692.29342  23734411.50143  23734415.85142
     -2760.702       -2151.189
  25820670.280 3    557975.151 3    478244.49241  25820668.86143  25820674.53741
     -2944.933       -2294.760
  23898887.140 3  -6009435.777 3  -4636222.93042  23898886.32243  23898888.92242
      3513.436        2737.751
  24227993.520 3  -5507624.723 3  -4264309.35641  24227993.84643  24227995.52341
       272.593         212.405
  21322699.104 4 -19747966.651 4 -15331478.93142  21322698.90744  21322700.94442
     -1621.643       -1263.615
 04  2  2  1 25 30.0000000  0 12G31G13G 8G21G29G26G10G17G 2G28G 3G27
  24330393.262 3   -407072.052 3   -283234.51141  24330392.61943  24330393.91841
      2433.425        1896.176
  24097904.344 3  -6979420.510 3  -5379785.88242  24097904.71743  24097907.46142
     -3539.150       -2757.769
  20305430.454 4 -28969126.673 4 -22512777.26042  20305430.12144  20305432.67942
       786.718         613.037
  24302572.097 3  -4653043.971 3  -3591899.74641  24302571.73143  24302572.36741
      1376.657        1072.726
  22412934.714 3 -13811204.265 3 -10712981.35842  22412934.57743  22412936.48042
      2688.176        2094.682
  23229012.968 3  -7939221.445 3  -6130830.04642  23229013.77743  23229014.95642
      3463.396        2698.752
  21196018.391 4 -22131045.931 4 -17195037.74642  21196017.71844  21196020.71642
      -934.762        -728.378
  23742300.592 3  -9013793.846 3  -7000391.50242  23742301.12043  23742304.39742
     -2765.671       -2155.069
  25829082.094 3    602186.272 3    512694.71041  25829084.38343  25829090.59041
     -2947.980       -2297.117
  23888862.684 3  -6062114.576 3  -4677271.32642  23888862.59143  23888865.28942
      3511.242        2736.033
  24227228.933 3  -5511641.541 3  -4267439.34441  24227229.28843  24227230.17441
       263.735         205.506
  21327336.160 4 -19723600.069 4 -15312491.98242  21327335.86144  21327337.80742
     -1626.643       -1267.513
 04  2  2  1 25 45.0000000  0 12G31G13G 8G21G29G26G10G17G 2G28G 3G27
  24323459.130 3   -443503.227 3   -311622.42741  24323459.07243  24323462.46941
      2425.388        1889.929
  24108010.851 3  -6926306.269 3  -5338398.18242  24108011.11443  24108014.79342
     -3542.275       -2760.207
  20303200.096 4 -28980847.569 4 -22521910.42642  20303199.66844  20303202.53242
       776.980         605.450
  24298658.918 3  -4673608.197 3  -3607923.79641  24298657.15943  24298660.01341
      1366.218        1064.583
  22405270.044 3 -13851483.664 3 -10744367.90542  22405270.02343  22405272.12842
      2683.202        2090.825
  23219134.821 3  -7991131.999 3  -6171279.83342  23219135.70343  23219137.22242
      3459.003        2695.330
  21198703.020 4 -22116937.691 4 -17184044.31942  21198702.45444  21198705.61142
      -945.502        -736.739
  23750206.175 3  -8972249.349 3  -6968019.17641  23750205.71843  23750209.15541
     -2772.699       -2160.544
  25837503.426 3    646440.125 3    547178.23441  25837502.38343  25837507.74641
     -2951.278       -2299.705
  23878847.044 3  -6114749.360 3  -4718285.41742  23878847.27943  23878848.49642
      3507.492        2733.115
  24226492.021 3  -5515512.382 3  -4270455.57141  24226492.86443  24226494.42041
       253.332         197.398
  21331989.391 3 -19699144.146 3 -15293435.42242  21331989.40643  21331991.97842
     -1633.440       -1272.805
 04  2  2  1 26  0.0000000  0 12G31G13G 8G21G29G26G10G17G 2G28G 3G27
  24316544.963 3   -479830.163 3   -339929.10341  24316544.61743  24316547.94241
      2417.900        1884.059
  24118125.143 3  -6873158.271 3  -5296984.17541  24118124.85543  24118128.26141
     -3544.539       -2761.978
  20300995.224 4 -28992434.797 4 -22530939.43142  20300994.66844  20300997.59542
       767.900         598.377
  24294772.918 3  -4694031.318 3  -3623837.89941  24294772.15743  24294773.05741
      1357.128        1057.512
  22397616.480 3 -13891700.264 3 -10775705.51742  22397616.94543  22397619.49942
      2678.714        2087.322
  23209265.189 3  -8042993.178 3  -6211691.14442  23209265.89443  23209268.12542
      3455.559        2692.651
  21201416.746 4 -22102678.543 4 -17172933.29842  21201416.23444  21201419.27442
      -955.769        -744.749
  23758128.649 3  -8930613.382 3  -6935575.58541  23758128.65643  23758132.39341
     -2778.967       -2165.419
  25845930.991 2    690736.572 2    581694.94041  25845930.69342  25845939.08941
     -2953.930       -2301.754
  23868839.417 3  -6167339.620 3  -4759264.83242  23868838.46843  23868841.28442
      3504.502        2730.780
  24225783.561 3  -5519236.916 3  -4273357.80641  24225782.59943  24225787.81941
       243.177         189.489
  21336660.102 4 -19674598.811 4 -15274309.18542  21336659.82344  21336662.56542
     -1639.467       -1277.495
 04  2  2  1 26 15.0000000  0 12G31G13G 8G21G29G26G10G17G 2G28G 3G27
  24309653.304 3   -516052.437 3   -368154.23041  24309652.68243  24309655.95141
      2411.197        1878.852
  24128245.214 3  -6819976.755 3  -5255544.04241  24128245.50143  24128248.28541
     -3546.904       -2763.814
  20298815.684 4 -29003888.253 4 -22539864.19942  20298815.20044  20298817.91242
       758.902         591.362
  24290912.150 3  -4714313.012 3  -3639641.81441  24290912.26443  24290914.16041
      1347.331        1049.868
  22389975.670 3 -13931854.111 3 -10806994.22042  22389976.06643  22389978.33542
      2674.568        2084.087
  23199405.042 3  -8094804.666 3  -6252063.72742  23199406.10743  23199408.90042
      3452.180        2690.020
  21204158.851 4 -22088268.609 4 -17161704.78142  21204157.91044  21204161.21642
      -965.918        -752.657
  23766069.321 3  -8888886.228 3  -6903060.95241  23766067.81543  23766073.13041
     -2784.914       -2170.072
  25854368.219 3    735075.532 3    616244.77941  25854369.03443  25854377.33841
     -2956.959       -2304.116
  23858839.898 3  -6219884.954 3  -4800209.23842  23858839.36743  23858841.33442
      3501.480        2728.421
  24225102.717 3  -5522815.038 3  -4276145.94941  24225102.16043  24225104.72941
       233.349         181.836
  21341347.876 3 -19649964.205 3 -15255113.38742  21341347.80543  21341350.42042
     -1645.482       -1282.186
 04  2  2  1 26 30.0000000  0 12G31G13G 8G21G29G26G10G17G 2G28G 3G27
  24302778.426 3   -552169.895 3   -396297.69541  24302779.72343  24302783.41841
      2403.934        1873.181
  24138371.881 3  -6766761.949 3  -5214077.97441  24138371.03843  24138375.12841
     -3549.009       -2765.452
  20296661.533 4 -29015208.040 4 -22548684.80842  20296661.16244  20296663.92842
       750.070         584.469
  24287080.497 3  -4734453.096 3  -3655335.37941  24287080.14643  24287080.61241
      1337.698        1042.369
  22382346.471 3 -13971944.920 3 -10838233.81242  22382345.75543  22382348.83442
      2670.421        2080.861
  23189554.928 3  -8146566.496 3  -6292397.60742  23189556.14843  23189559.04242
      3449.197        2687.670
  21206929.413 4 -22073708.288 4 -17150359.08742  21206928.94644  21206932.07442
      -975.787        -760.353
  23774027.475 3  -8847068.576 3  -6870475.78741  23774027.11643  23774031.31341
     -2790.932       -2174.757
  25862815.749 3    779456.340 3    650827.21541  25862817.29343  25862819.15641
     -2959.514       -2306.115
  23848849.272 3  -6272385.266 3  -4841118.54942  23848848.71543  23848852.00742
      3498.425        2726.044
  24224449.321 3  -5526246.973 3  -4278820.19941  24224449.96243  24224452.58841
       223.681         174.309
  21346052.449 3 -19625240.726 3 -15235848.34142  21346052.29943  21346055.19242
     -1651.422       -1286.821
 04  2  2  1 26 45.0000000  0 12G31G13G 8G21G29G26G10G17G 2G28G 3G27
  24295926.282 3   -588181.926 3   -424359.00241  24295924.85543  24295930.42741
      2397.118        1867.883
  24148504.031 3  -6713513.695 3  -5172585.85441  24148504.79343  24148508.65241
     -3551.580       -2767.460
  20294533.222 4 -29026393.917 4 -22557401.07242  20294532.54244  20294535.41042
       740.750         577.206
  24283274.069 3  -4754451.293 3  -3670918.38841  24283273.56243  24283275.73941
      1328.273        1035.033
  22374729.292 3 -14011972.486 3 -10869424.12242  22374730.10943  22374731.74942
      2665.937        2077.335
  23179715.783 3  -8198278.055 3  -6332692.31242  23179716.58143  23179718.97942
      3445.401        2684.726
  21209728.625 4 -22058997.376 4 -17138896.04542  21209728.18044  21209731.45042
      -986.150        -768.439
  23782002.523 3  -8805160.505 3  -6837820.15041  23782001.57943  23782005.07941
     -2797.178       -2179.608
  25871267.756 3    823879.100 3    685442.33141  25871267.51343  25871272.65741
     -2962.950       -2308.769
  23838867.162 3  -6324839.971 3  -4881992.32642  23838866.33143  23838869.28842
      3495.106        2723.454
  24223823.389 3  -5529532.409 3  -4281380.27741  24223823.38443  24223827.54341
       213.511         166.365
  21350774.353 3 -19600428.231 3 -15216513.92842  21350774.31943  21350776.84642
     -1657.603       -1291.640
 04  2  2  1 27  0.0000000  0 12G31G13G 8G21G29G26G10G17G 2G28G 3G27
  24289093.606 3   -624088.395 3   -452338.02041  24289094.05943  24289098.13541
      2390.429        1862.670
  24158643.767 3  -6660232.539 3  -5131068.07441  24158644.64043  24158645.57641
     -3553.108       -2768.655
  20292429.713 4 -29037446.073 4 -22566013.14042  20292429.29844  20292432.09842
       732.565         570.822
  24279496.443 3  -4774307.561 3  -3686390.81041  24279496.69743  24279497.93641
      1319.319        1028.036
  22367124.543 3 -14051936.651 3 -10900565.03242  22367124.39743  22367126.70242
      2662.430        2074.626
  23169885.529 3  -8249939.477 3  -6372947.96342  23169885.74943  23169888.78342
      3442.745        2682.658
  21212557.050 4 -22044136.095 4 -17127315.83742  21212556.17744  21212559.50242
      -995.546        -775.747
  23789994.771 3  -8763162.684 3  -6805094.58241  23789994.86643  23789998.46241
     -2802.647       -2183.879
  25879731.115 3    868343.346 3    720089.77241  25879730.47243  25879733.74241
     -2965.288       -2310.629
  23828893.914 3  -6377249.043 3  -4922830.55042  23828894.23143  23828896.36842
      3492.711        2721.592
  24223226.381 3  -5532671.542 3  -4283826.35141  24223226.26943  24223230.32041
       204.834         159.608
  21355513.060 3 -19575527.090 3 -15197110.44442  21355513.14243  21355515.48242
     -1662.787       -1295.673
 04  2  2  1 27 15.0000000  0 12G31G13G 8G21G29G26G10G17G 2G28G 3G27
  24282281.860 3   -659888.677 3   -480234.33441  24282281.80943  24282285.47041
      2383.011        1856.890
  24168788.763 3  -6606918.517 3  -5089524.68741  24168788.06943  24168791.72941
     -3554.933       -2770.071
  20290351.900 4 -29048364.303 4 -22574520.84942  20290351.48844  20290354.35942
       723.718         563.945
  24275745.578 3  -4794021.628 3  -3701752.41342  24275744.41043  24275745.48142
      1309.883        1020.690
  22359531.718 3 -14091837.145 3 -10931656.32942  22359531.78143  22359533.77842
      2658.217        2071.359
  23160063.179 3  -8301550.234 3  -6413164.13742  23160064.21143  23160066.64842
      3439.034        2679.763
  21215413.145 3 -22029124.498 3 -17115618.49342  21215412.87243  21215415.83042
     -1005.586        -783.563
  23798003.663 3  -8721075.320 3  -6772299.23341  23798002.37943  23798006.29541
     -2808.722       -2188.607
  25888199.888 3    912848.930 3    754769.42941  25888199.63043  25888203.19941
     -2968.087       -2312.786
  23818929.836 3  -6429612.015 3  -4963632.85242  23818928.95043  23818931.88742
      3489.679        2719.233
  24222657.866 3  -5535664.132 3  -4286158.24241  24222657.47443  24222660.01741
       194.840         151.817
  21360268.826 4 -19550537.383 4 -15177637.94342  21360268.14644  21360270.64142
     -1668.689       -1300.262
 04  2  2  1 27 30.0000000  0 12G31G13G 8G21G29G26G10G17G 2G28G 3G27
  24275490.352 3   -695582.584 3   -508047.75041  24275489.64643  24275493.24941
      2375.952        1851.383
  24178940.971 3  -6553571.897 3  -5047955.91341  24178940.86043  24178943.91541
     -3557.669       -2772.194
  20288299.778 4 -29059148.703 4 -22582924.27542  20288299.40744  20288302.11242
       714.409         556.682
  24272019.731 3  -4813593.390 3  -3717003.13141  24272019.59543  24272020.75941
      1299.698        1012.751
  22351951.690 3 -14131673.846 3 -10962697.91342  22351951.57743  22351952.75942
      2653.500        2067.662
  23150252.225 3  -8353110.232 3  -6453340.75742  23150253.02643  23150255.68742
      3435.593        2677.074
  21218298.553 3 -22013962.780 3 -17103804.17342  21218297.92343  21218301.30542
     -1015.895        -791.604
  23806028.958 3  -8678898.787 3  -6739434.40441  23806029.19243  23806031.50441
     -2815.045       -2193.537
  25896676.662 3    957395.574 3    789481.10741  25896676.17243  25896675.22241
     -2971.164       -2315.205
  23808974.207 3  -6481928.646 3  -5004399.04842  23808973.32243  23808976.41642
      3486.091        2716.424
  24222116.367 3  -5538510.180 3  -4288375.94542  24222116.44743  24222118.23742
       184.928         144.097
  21365040.688 3 -19525459.177 3 -15158096.48642  21365040.24743  21365042.95842
     -1674.855       -1305.084
 04  2  2  1 27 45.0000000  0 12G31G13G 8G21G29G26G10G17G 2G28G 3G27
  24268717.939 3   -731169.725 3   -535777.99241  24268717.31143  24268721.59741
      2369.060        1846.005
  24189098.839 3  -6500192.772 3  -5006361.82241  24189098.53943  24189101.18141
     -3559.560       -2773.679
  20286273.240 4 -29069799.150 4 -22591223.32342  20286272.97544  20286275.43242
       705.618         549.834
  24268323.063 3  -4833022.743 3  -3732142.89241  24268323.67343  24268324.92941
      1290.600        1005.660
  22344382.922 3 -14171446.452 3 -10993689.55342  22344382.92843  22344384.65542
      2649.336        2064.412
  23140450.862 3  -8404619.331 3  -6493477.72342  23140450.86943  23140453.12742
      3432.346        2674.552
  21221212.542 4 -21998650.916 4 -17091872.85442  21221211.89544  21221215.11142
     -1025.753        -799.292
  23814072.256 3  -8636633.672 3  -6706500.54141  23814071.93043  23814074.40341
     -2820.697       -2197.950
  25905160.114 3   1001983.045 3    824224.60441  25905160.32943  25905164.29541
     -2973.673       -2317.147
  23799027.750 3  -6534198.628 3  -5045128.89942  23799027.51543  23799029.71842
      3483.176        2714.163
  24221602.804 3  -5541209.651 3  -4290479.41342  24221602.74543  24221604.67342
       175.060         136.404
  21369829.717 3 -19500292.654 3 -15138486.21442  21369829.82143  21369832.04042
     -1680.724       -1309.663
 04  2  2  1 28  0.0000000  0 12G31G13G 8G21G29G26G10G17G 2G28G 3G27
  24261966.413 3   -766649.692 3   -563424.71341  24261967.07043  24261968.55341
      2361.499        1840.132
  24199262.233 3  -6446781.240 3  -4964742.45841  24199262.79743  24199265.32441
     -3561.674       -2775.326
  20284271.918 4 -29080315.742 4 -22599418.06842  20284271.54044  20284274.14542
       696.854         543.007
  24264652.458 3  -4852309.481 3  -3747171.51241  24264651.59343  24264654.43041
      1281.415         998.516
  22336826.582 3 -14211154.876 3 -11024631.17842  22336826.01843  22336829.13742
      2645.260        2061.241
  23130658.294 3  -8456077.176 3  -6533574.74242  23130658.86543  23130660.60442
      3428.942        2671.901
  21224154.617 3 -21983189.067 3 -17079824.66542  21224153.91243  21224157.06542
     -1035.704        -807.037
  23822131.327 3  -8594280.270 3  -6673497.91341  23822130.98543  23822135.66341
     -2826.327       -2202.336
  25913651.606 3   1046611.143 3    858999.73041  25913653.62043  25913655.19741
     -2976.429       -2319.297
  23789089.824 3  -6586421.531 3  -5085822.06342  23789089.49843  23789092.22642
      3480.300        2711.918
  24221116.770 3  -5543762.419 3  -4292468.60042  24221116.23843  24221119.38242
       165.331         128.828
  21374635.357 3 -19475038.054 3 -15118807.29942  21374635.32643  21374638.00342
     -1686.465       -1314.127
 04  2  2  1 28 15.0000000  0 12G31G13G 8G21G29G26G10G17G 2G28G 3G27
  24255235.102 3   -802022.182 3   -590987.67441  24255235.10343  24255239.22241
      2354.536        1834.696
  24209432.149 3  -6393337.577 3  -4923098.05341  24209432.94643  24209434.90341
     -3563.985       -2777.136
  20282295.904 4 -29090698.239 4 -22607508.32142  20282295.69844  20282298.47642
       687.750         535.900
  24261009.887 3  -4871453.406 3  -3762088.85641  24261008.31643  24261011.70441
      1271.393         990.696
  22329282.795 3 -14250798.867 3 -11055522.59842  22329282.21743  22329284.57942
      2640.801        2057.747
  23120876.726 3  -8507483.624 3  -6573631.72542  23120876.89843  23120878.72942
      3425.627        2669.316
  21227125.615 3 -21967577.360 3 -17067659.70742  21227124.88743  21227128.05542
     -1045.662        -814.814
  23830207.821 3  -8551838.899 3  -6640426.75941  23830207.38443  23830211.47741
     -2831.953       -2206.722
  25922152.440 3   1091279.589 3    893806.32141  25922152.05943  25922157.41341
     -2979.176       -2321.443
  23779161.150 3  -6638597.042 3  -5126478.29842  23779160.89943  23779164.07042
      3476.801        2709.189
  24220658.110 3  -5546168.540 3  -4294343.51842  24220658.63543  24220662.26542
       155.623         121.270
  21379457.763 3 -19449695.360 3 -15099059.75442  21379457.81943  21379460.40042
     -1692.375       -1318.740
 04  2  2  1 28 30.0000000  0 12G31G13G 8G21G29G26G10G17G 2G28G 3G27
  24248524.683 3   -837286.790 3   -618466.56541  24248526.13743  24248528.30041
      2347.528        1829.235
  24219608.649 3  -6339861.848 3  -4881428.67241  24219608.50043  24219611.67741
     -3566.075       -2778.756
  20280345.957 4 -29100946.689 4 -22615494.12442  20280345.61744  20280348.15742
       678.709         528.864
  24257393.998 3  -4890454.311 3  -3776894.74041  24257395.11643  24257395.30841
      1261.930         983.320
  22321750.764 3 -14290378.317 3 -11086363.72442  22321751.07843  22321753.52242
      2636.393        2054.364
  23111103.410 3  -8558838.320 3  -6613648.37742  23111104.96343  23111106.26842
      3421.985        2666.492
  21230124.823 4 -21951815.938 4 -17055378.08742  21230124.26244  21230127.46642
     -1055.697        -822.620
  23838301.425 3  -8509309.908 3  -6607287.32341  23838299.91843  23838304.00341
     -2838.421       -2211.763
  25930660.196 3   1135988.116 3    928644.16541  25930660.39543  25930666.72841
     -2982.027       -2323.653
  23769241.702 3  -6690724.962 3  -5167097.43642  23769241.90843  23769244.05642
      3473.638        2706.730
  24220227.604 3  -5548427.939 3  -4296104.09441  24220228.19443  24220231.33241
       145.683         113.529
  21384297.086 3 -19424264.914 3 -15079243.82142  21384297.14343  21384299.93642
     -1698.334       -1323.370
 04  2  2  1 28 45.0000000  0 12G31G13G 8G21G29G26G10G17G 2G28G 3G27
  24241835.806 3   -872443.131 3   -645861.10941  24241834.70043  24241835.36541
      2340.051        1823.415
  24229790.653 3  -6286354.321 3  -4839734.51341  24229791.71343  24229793.72641
     -3568.496       -2780.658
  20278421.228 4 -29111061.020 4 -22623375.41842  20278420.87844  20278423.51342
       669.883         521.985
  24253807.208 3  -4909312.002 3  -3791589.05841  24253806.50643  24253807.24141
      1252.427         975.912
  22314231.402 3 -14329892.915 3 -11117154.31742  22314232.08043  22314233.93642
      2632.124        2051.029
  23101340.429 3  -8610141.045 3  -6653624.53742  23101341.04643  23101343.11142
      3418.569        2663.818
  21233152.502 3 -21935904.720 3 -17042979.73242  21233151.95643  21233155.16642
     -1065.649        -830.369
  23846409.987 3  -8466693.825 3  -6574079.98141  23846407.78143  23846413.26641
     -2843.889       -2216.011
  25939177.146 3   1180736.539 3    963513.03941  25939176.31743  25939179.38841
     -2984.589       -2325.647
  23759331.508 3  -6742804.915 3  -5207679.21142  23759331.18543  23759332.10742
      3470.530        2704.307
  24219825.666 3  -5550540.375 3  -4297750.15241  24219825.66943  24219828.70841
       136.128         106.078
  21389153.400 3 -19398746.800 3 -15059359.57742  21389153.14943  21389155.84842
     -1704.062       -1327.835
 04  2  2  1 29  0.0000000  0 12G31G13G 8G21G29G26G10G17G 2G28G 3G27
  24235165.653 3   -907490.931 3   -673171.07441  24235165.94543  24235168.94741
      2333.208        1818.088
  24239978.747 3  -6232815.273 3  -4798015.79541  24239978.73343  24239982.55541
     -3570.080       -2781.883
  20276521.996 4 -29121041.309 4 -22631152.26642  20276521.59244  20276524.37842
       661.112         515.149
  24250245.037 3  -4928026.382 3  -3806171.70041  24250243.92543  24250245.44341
      1242.823         968.434
  22306725.192 3 -14369342.581 3 -11147894.31942  22306724.65143  22306726.38742
      2628.019        2047.810
  23091587.880 3  -8661391.713 3  -6693560.12742  23091588.23243  23091590.34942
      3415.453        2661.392
  21236208.757 3 -21919844.033 3 -17030464.91742  21236208.23543  21236211.53342
     -1075.417        -837.988
  23854536.814 3  -8423991.025 3  -6540805.08641  23854535.95743  23854540.13341
     -2849.722       -2220.555
  25947700.762 3   1225524.483 3    998412.73641  25947700.80643  25947705.04841
     -2986.973       -2327.534
  23749429.944 3  -6794836.768 3  -5248223.51742  23749430.06043  23749431.89142
      3467.538        2701.979
  24219452.504 3  -5552506.046 3  -4299281.86341  24219452.51343  24219455.59841
       126.441          98.523
  21394025.822 3 -19373141.157 3 -15039407.12842  21394025.95643  21394028.12942
     -1709.608       -1332.157
 04  2  2  1 29 15.0000000  0 11G31G13G 8G21G29G26G10G17G28G 3G27
  24228515.842 3   -942429.784 3   -700396.14241  24228515.28343  24228518.22641
      2325.854        1812.350
  24250172.815 3  -6179244.687 3  -4756272.48641  24250172.77243  24250176.28641
     -3572.295       -2783.605
  20274648.321 4 -29130887.387 4 -22638824.53042  20274647.84944  20274650.75242
       652.142         508.166
  24246710.485 3  -4946597.258 3  -3820642.49641  24246710.01743  24246712.04341
      1233.627         961.275
  22299230.251 3 -14408726.936 3 -11178583.42842  22299230.25543  22299231.23142
      2623.783        2044.500
  23081845.702 3  -8712589.893 3  -6733454.81442  23081846.70243  23081847.23842
      3411.614        2658.395
  21239293.846 4 -21903633.830 4 -17017833.59142  21239293.00244  21239295.84842
     -1085.544        -845.868
  23862680.008 3  -8381201.812 3  -6507462.85641  23862679.46643  23862682.06141
     -2855.490       -2225.050
  23739538.028 3  -6846819.906 3  -5288729.86042  23739538.33043  23739540.20742
      3464.010        2699.237
  24219106.956 3  -5554324.765 3  -4300699.03542  24219106.66343  24219109.97042
       116.430          90.729
  21398915.224 3 -19347448.025 3 -15019386.50942  21398915.12043  21398917.35542
     -1715.603       -1336.825
 04  2  2  1 29 30.0000000  0 11G31G13G 8G21G29G26G10G17G28G 3G27
  24221889.169 3   -977259.287 3   -727536.01441  24221888.57343  24221890.77641
      2318.328        1806.482
  24260372.685 3  -6125642.815 3  -4714504.80141  24260372.89443  24260376.29641
     -3574.536       -2785.357
  20272800.301 4 -29140599.342 4 -22646392.28542  20272799.90144  20272802.77642
       643.212         501.201
  24243204.863 3  -4965024.398 3  -3835001.29341  24243203.53643  24243205.39041
      1223.759         953.575
  22291747.740 3 -14448045.917 3 -11209221.60042  22291747.33543  22291750.11842
      2619.473        2041.152
  23072113.246 3  -8763735.497 3  -6773308.53142  23072113.45743  23072114.21542
      3408.255        2655.782
  21242406.669 3 -21887274.296 3 -17005085.90442  21242405.95143  21242409.18842
     -1095.381        -853.539
  23870837.237 3  -8338326.673 3  -6474053.67541  23870838.23343  23870841.96741
     -2861.072       -2229.409
  23729655.393 3  -6898754.135 3  -5329198.08342  23729655.11143  23729656.58342
      3460.828        2696.740
  24218788.247 3  -5555996.537 3  -4302001.72942  24218788.40343  24218791.97842
       106.838          83.256
  21403820.807 3 -19321667.693 3 -14999297.93942  21403820.52443  21403823.24242
     -1721.248       -1341.233
 04  2  2  1 29 45.0000000  0 11G31G13G 8G21G29G26G10G17G28G 3G27
  24215281.527 3  -1011979.094 3   -754590.39741  24215281.59443  24215283.62641
      2311.289        1801.010
  24270579.033 3  -6072009.796 3  -4672712.85541  24270579.38043  24270582.77141
     -3576.243       -2786.680
  20270977.686 4 -29150177.121 4 -22653855.48542  20270977.24944  20270979.90842
       634.568         494.456
  24239724.981 3  -4983307.767 3  -3849248.07341  24239724.36343  24239726.22441
      1214.622         946.456
  22284277.401 3 -14487299.234 3 -11239808.60042  22284278.53443  22284280.29942
      2615.232        2037.830
  23062390.428 3  -8814828.204 3  -6813121.02842  23062390.57043  23062392.78942
      3404.931        2653.184
  21245547.735 3 -21870765.581 3 -16992221.97242  21245547.36843  21245550.49742
     -1105.044        -861.078
  23879013.002 3  -8295365.932 3  -6440577.80142  23879013.23043  23879016.65942
     -2866.569       -2233.697
  23719781.488 3  -6950639.212 3  -5369628.01642  23719781.59243  23719783.68142
      3457.858        2694.442
  24218498.843 3  -5557521.312 3  -4303189.87542  24218498.04743  24218501.21342
        97.286          75.813
  21408742.907 3 -19295800.287 3 -14979141.51742  21408743.13443  21408745.49742
     -1727.020       -1345.743
 04  2  2  1 30  0.0000000  0 11G31G13G 8G21G29G26G10G17G28G 3G27
  24208694.200 3  -1046588.965 3   -781559.10641  24208695.40143  24208698.71541
      2303.407        1794.858
  24280791.558 3  -6018345.826 3  -4630896.79941  24280791.00243  24280793.76441
     -3579.024       -2788.849
  20269180.757 4 -29159620.639 4 -22661214.07142  20269180.50444  20269182.91542
       624.906         486.930
  24236272.263 3  -5001447.203 3  -3863382.70241  24236272.06143  24236274.87541
      1204.339         938.454
  22276820.798 3 -14526486.804 3 -11270344.37642  22276821.30843  22276823.08142
      2610.035        2033.820
  23052677.556 3  -8865867.839 3  -6852892.18042  23052678.31343  23052680.58742
      3400.596        2649.799
  21248717.917 3 -21854107.873 3 -16979241.94742  21248717.09043  21248720.18442
     -1115.627        -869.329
  23887204.258 3  -8252319.939 3  -6407035.48142  23887204.37743  23887207.90942
     -2872.913       -2238.621
  23709917.431 3  -7002474.819 3  -5410019.39342  23709917.31143  23709919.59542
      3453.907        2691.360
  24218236.720 3  -5558899.117 3  -4304263.50242  24218236.25643  24218238.42542
        86.789          67.631
  21413681.952 3 -19269846.006 3 -14958917.40442  21413682.11843  21413684.83842
     -1733.307       -1350.633
 04  2  2  1 30 15.0000000  0 11G31G13G 8G21G29G26G10G17G28G 3G27
  24202128.946 3  -1081088.450 3   -808441.80041  24202129.35843  24202132.16341
      2297.298        1790.088
  24291009.704 3  -5964651.076 3  -4589056.74641  24291009.97643  24291011.44541
     -3579.658       -2789.349
  20267409.190 4 -29168929.930 4 -22668468.06042  20267408.85844  20267411.57642
       617.197         480.931
  24232847.427 3  -5019442.461 3  -3877404.97041  24232848.09343  24232849.16841
      1195.699         931.706
  22269375.928 3 -14565608.356 3 -11300828.69342  22269375.80443  22269378.52342
      2606.800        2031.300
  23042975.331 3  -8916854.129 3  -6892621.76242  23042975.72743  23042977.82442
      3398.193        2647.948
  21251915.977 3 -21837301.219 3 -16966145.85542  21251915.26443  21251918.33442
     -1124.491        -876.229
  23895411.604 3  -8209189.234 3  -6373427.15942  23895411.08643  23895415.31542
     -2877.365       -2242.102
  23700062.991 3  -7054260.489 3  -5450371.86042  23700062.72043  23700065.37742
      3451.664        2689.601
  24218002.967 3  -5560129.955 3  -4305222.58142  24218003.10443  24218004.37242
        77.941          60.734
  21418637.778 3 -19243804.877 3 -14938625.61542  21418637.07843  21418640.24842
     -1737.955       -1354.257
 04  2  2  1 30 30.0000000  0 11G31G13G 8G21G29G26G10G17G28G 3G27
  24195586.515 3  -1115477.242 3   -835238.23841  24195586.17143  24195589.28641
      2288.628        1783.347
  24301232.454 3  -5910925.685 3  -4547192.82042  24301232.68243  24301235.53942
     -3582.493       -2791.554
  20265663.092 4 -29178104.915 4 -22675617.39942  20265662.86244  20265665.64042
       607.536         473.401
  24229451.060 3  -5037293.387 3  -3891314.76741  24229450.91143  24229452.21341
      1185.281         923.595
  22261944.290 3 -14604663.700 3 -11331261.42542  22261944.33143  22261946.86542
      2601.238        2026.982
  23033283.867 3  -8967786.844 3  -6932309.59742  23033283.68843  23033285.57242
      3394.043        2644.712
  21255142.524 3 -21820345.789 3 -16952933.83842  21255142.13043  21255144.99242
     -1135.076        -884.468
  23903635.604 3  -8165974.137 3  -6339753.08041  23903635.94443  23903638.70941
     -2883.854       -2247.160
  23690217.827 3  -7105996.028 3  -5490685.25142  23690216.68743  23690220.77942
      3447.537        2686.395
  24217794.483 3  -5561213.699 3  -4306067.04742  24217795.21643  24217799.43542
        67.369          52.495
  21423609.474 3 -19217677.162 3 -14918266.36142  21423609.19443  21423612.27542
     -1744.555       -1359.390
 04  2  2  1 30 45.0000000  0 11G31G13G 8G21G29G26G10G17G28G 3G27
  24189064.431 3  -1149754.938 3   -861948.13441  24189064.58043  24189066.37141
      2281.801        1778.031
  24311462.147 3  -5857169.855 3  -4505305.17541  24311461.84443  24311464.22941
     -3584.658       -2793.244
  20263942.964 4 -29187145.574 4 -22682662.06442  20263942.54744  20263945.11742
       598.253         466.173
  24226081.958 3  -5054999.863 3  -3905111.99741  24226081.54843  24226082.59641
      1175.280         915.801
  22254524.697 3 -14643652.738 3 -11361642.49642  22254524.45143  22254527.18142
      2596.873        2023.521
  23023600.967 3  -9018665.749 3  -6971955.49642  23023601.34643  23023604.07442
      3390.449        2641.893
  21258397.520 3 -21803241.698 3 -16939605.97142  21258396.96843  21258399.63542
     -1145.190        -892.352
  23911876.180 3  -8122674.948 3  -6306013.46941  23911875.21443  23911878.52541
     -2889.395       -2251.474
  23680382.857 3  -7157681.126 3  -5530959.31742  23680382.72443  23680384.91542
      3443.909        2683.568
  24217616.969 3  -5562150.217 3  -4306796.79941  24217617.44143  24217620.66141
        57.502          44.813
  21428598.117 3 -19191462.914 3 -14897839.68042  21428597.81543  21428600.70842
     -1750.445       -1363.985
 04  2  2  1 31  0.0000000  0 11G31G13G 8G21G29G26G10G17G28G 3G27
  24182562.567 3  -1183921.156 3   -888571.14741  24182562.77843  24182563.96041
      2273.834        1771.809
  24321697.253 3  -5803383.675 3  -4463393.88541  24321696.94243  24321699.48741
     -3586.963       -2795.044
  20262247.722 4 -29196051.913 4 -22689602.06842  20262247.67144  20262250.40042
       589.262         459.158
  24222740.211 3  -5072561.800 3  -3918796.62441  24222740.39343  24222742.26341
      1165.971         908.547
  22247118.463 3 -14682575.114 3 -11391971.61842  22247118.09443  22247120.38942
      2592.532        2020.132
  23013929.080 3  -9069490.567 3  -7011559.24742  23013928.71043  23013932.22142
      3386.398        2638.748
  21261680.892 4 -21785989.074 4 -16926162.36642  21261680.02144  21261683.09342
     -1155.228        -900.182
  23920131.383 3  -8079292.275 3  -6272208.82941  23920131.49443  23920133.73241
     -2894.935       -2255.796
  23670558.589 3  -7209315.457 3  -5571193.86542  23670558.00443  23670559.71742
      3440.639        2681.017
  24217467.799 3  -5562939.576 3  -4307411.88341  24217467.52543  24217469.47041
        47.845          37.271
  21433602.645 3 -19165162.458 3 -14877345.82042  21433602.50943  21433605.12442
     -1756.224       -1368.494
 04  2  2  1 31 15.0000000  0 11G31G13G 8G21G29G26G10G17G28G 3G27
  24176082.660 3  -1217975.541 3   -915107.00741  24176081.68043  24176084.66441
      2266.649        1766.223
  24331937.807 3  -5749567.631 3  -4421459.32241  24331938.29243  24331939.08041
     -3588.901       -2796.548
  20260578.896 4 -29204823.874 4 -22696437.36042  20260578.39644  20260581.06742
       580.247         452.149
  24219425.784 3  -5089978.889 3  -3932368.39141  24219425.48443  24219426.96141
      1156.166         900.906
  22239724.340 3 -14721430.754 3 -11422248.74242  22239724.36943  22239726.07242
      2588.016        2016.622
  23004268.304 3  -9120261.136 3  -7051120.72142  23004268.29043  23004270.56142
      3382.798        2635.952
  21264992.001 3 -21768587.932 3 -16912603.04042  21264991.24543  21264994.60342
     -1165.120        -907.875
  23928402.579 3  -8035826.236 3  -6238339.21341  23928403.22643  23928404.85741
     -2900.536       -2260.144
  23660741.856 3  -7260898.583 3  -5611388.50642  23660742.14143  23660743.42642
      3436.917        2678.118
  24217346.113 3  -5563581.719 3  -4307912.24341  24217345.11843  24217347.68141
        37.722          29.399
  21438624.071 3 -19138775.675 3 -14856784.69042  21438623.83743  21438626.24542
     -1762.158       -1373.110
 04  2  2  1 31 30.0000000  0 11G31G13G 8G21G29G26G10G17G28G 3G27
  24169623.733 3  -1251917.839 3   -941555.53941  24169622.92643  24169626.10741
      2259.284        1760.481
  24342183.231 3  -5695721.648 3  -4379501.42441  24342183.57543  24342185.58841
     -3590.524       -2797.796
  20258935.042 4 -29213461.517 4 -22703167.98642  20258934.92244  20258937.37242
       571.679         445.469
  24216140.005 3  -5107251.077 3  -3945827.23141  24216138.85443  24216140.28241
      1146.713         893.548
  22232342.982 3 -14760219.374 3 -11452473.64342  22232343.15543  22232346.04142
      2583.844        2013.389
  22994616.784 3  -9170977.303 3  -7090639.80542  22994617.00943  22994619.74542
      3379.499        2633.377
  21268331.294 3 -21751038.560 3 -16898928.21042  21268330.98043  21268334.05242
     -1174.625        -915.286
  23936688.682 3  -7992277.479 3  -6204405.14941  23936689.32243  23936693.65341
     -2905.861       -2264.306
  23650934.878 3  -7312430.380 3  -5651543.12542  23650934.72843  23650937.89542
      3434.109        2675.940
  24217250.512 3  -5564076.679 3  -4308297.90341  24217251.45943  24217252.84741
        28.120          21.921
  21443661.551 3 -19112302.860 3 -14836156.52642  21443661.07843  21443663.88742
     -1767.524       -1377.283
 04  2  2  1 31 45.0000000  0 11G31G13G 8G21G29G26G10G17G28G 3G27
  24163186.013 3  -1285747.476 3   -967916.29841  24163185.24243  24163187.23441
      2251.240        1754.210
  24352436.798 3  -5641845.732 3  -4337520.21741  24352437.03943  24352438.57141
     -3592.722       -2799.523
  20257317.076 4 -29221964.646 4 -22709793.79842  20257316.64844  20257319.48642
       562.103         437.999
  24212880.086 3  -5124378.044 3  -3959172.91041  24212878.89043  24212881.23041
      1136.826         885.840
  22224974.393 3 -14798940.788 3 -11482646.17342  22224974.70343  22224976.33342
      2578.803        2009.433
  22984976.861 3  -9221638.580 3  -7130116.12542  22984977.46943  22984979.67042
      3375.313        2630.108
  21271699.171 3 -21733340.972 3 -16885137.88042  21271698.53343  21271701.34242
     -1185.037        -923.413
  23944990.773 3  -7948646.263 3  -6170406.84041  23944990.39743  23944994.57141
     -2912.091       -2269.163
  23641138.660 3  -7363910.430 3  -5691657.41342  23641137.97643  23641141.63342
      3430.155        2672.834
  24217185.065 3  -5564424.329 3  -4308568.79541  24217183.73043  24217186.56641
        18.128          14.128
  21448715.451 3 -19085744.181 3 -14815461.45042  21448715.21743  21448718.01842
     -1773.602       -1382.040
 04  2  2  1 32  0.0000000  0 11G31G13G 8G21G29G26G10G17G28G 3G27
  24156769.115 3  -1319464.329 3   -994189.16842  24156769.39343  24156771.43142
      2244.115        1748.657
  24362695.519 3  -5587940.316 3  -4295515.99941  24362694.85743  24362696.51841
     -3594.635       -2801.019
  20255724.258 4 -29230333.431 4 -22716314.92542  20255724.14844  20255726.76242
       553.526         431.324
  24209648.478 3  -5141359.819 3  -3972405.44341  24209647.16543  24209649.56741
      1127.212         878.349
  22217619.186 3 -14837594.772 3 -11512766.16042  22217619.20943  22217621.32642
      2574.745        2006.306
  22975346.774 3  -9272244.886 3  -7169549.60842  22975346.96543  22975349.75242
      3371.919        2627.476
  21275095.247 3 -21715495.326 3 -16871232.18242  21275094.46543  21275097.42942
     -1194.672        -930.909
  23953309.448 3  -7904932.994 3  -6136344.60841  23953307.73543  23953312.70941
     -2916.904       -2272.904
  23631352.358 3  -7415338.374 3  -5731731.11842  23631352.85143  23631354.77042
      3426.838        2670.262
  24217145.987 3  -5564624.708 3  -4308724.94941  24217146.92543  24217148.93641
         8.374           6.524
  21453785.358 3 -19059099.807 3 -14794699.59942  21453785.43243  21453788.43942
     -1779.098       -1386.303
 04  2  2  1 32 15.0000000  0 11G31G13G 8G21G29G26G10G17G28G 3G27
  24150374.518 3  -1353068.028 3  -1020373.84941  24150373.95643  24150377.72541
      2236.660        1742.858
  24372957.211 3  -5534005.468 3  -4253488.84541  24372957.30043  24372961.49241
     -3596.106       -2802.172
  20254157.437 4 -29238567.777 4 -22722731.29642  20254157.07344  20254159.74442
       544.730         424.468
  24206444.848 3  -5158196.207 3  -3985524.70441  24206444.48843  24206446.24141
      1117.770         870.982
  22210276.606 3 -14876181.196 3 -11542833.50842  22210276.32143  22210278.20842
      2570.414        2002.909
  22965727.338 3  -9322795.890 3  -7208940.00042  22965727.24243  22965730.84442
      3368.466        2624.782
  21278519.304 3 -21697501.656 3 -16857211.14542  21278518.72443  21278521.81242
     -1204.226        -938.347
  23961644.853 3  -7861138.120 3  -6102218.75841  23961643.75543  23961646.13641
     -2921.868       -2276.790
  23621576.277 3  -7466714.040 3  -5771764.07942  23621575.46043  23621577.84742
      3423.497        2667.664
  24217135.950 3  -5564677.773 3  -4308766.32341  24217135.95143  24217140.02341
        -1.109           -.856
  21458872.038 3 -19032369.917 3 -14773871.11442  21458871.91543  21458875.06542
     -1784.606       -1390.588
 04  2  2  1 32 30.0000000  0 11G31G13G 8G21G29G26G10G17G28G 3G27
  24144001.559 3  -1386558.202 3  -1046470.06541  24144000.42043  24144003.67741
      2228.867        1736.772
  24383226.526 3  -5480041.323 3  -4211438.90441  24383227.57643  24383227.54741
     -3598.383       -2803.937
  20252615.825 4 -29246667.635 4 -22729042.87242  20252615.46044  20252618.43242
       535.420         417.220
  24203268.929 3  -5174887.057 3  -3998530.57341  24203268.75043  24203270.19341
      1107.777         863.211
  22202946.376 3 -14914699.897 3 -11572848.07842  22202946.59043  22202948.60642
      2565.681        1999.250
  22956118.429 3  -9373291.465 3  -7248287.19042  22956118.12943  22956120.86242
      3364.324        2621.559
  21281971.463 3 -21679360.162 3 -16843074.91342  21281970.67243  21281973.98642
     -1214.390        -946.264
  23969991.987 3  -7817261.871 3  -6068029.46541  23969991.04843  23969996.47941
     -2927.953       -2281.510
  23611810.075 3  -7518037.022 3  -5811755.98642  23611809.86143  23611810.99842
      3419.783        2664.766
  24217155.753 3  -5564583.494 3  -4308692.88342  24217154.30543  24217156.88042
       -11.150          -8.683
  21463974.818 3 -19005554.589 3 -14752976.05242  21463975.11043  21463977.52542
     -1790.584       -1395.246
 04  2  2  1 32 45.0000000  0 11G31G13G 8G21G29G26G10G17G28G 3G27
  24137649.966 3  -1419934.386 3  -1072477.43741  24137649.55843  24137653.09641
      2221.326        1730.896
  24393501.958 3  -5426048.100 3  -4169366.26241  24393502.63343  24393503.72641
     -3600.248       -2805.382
  20251100.250 4 -29254632.986 4 -22735249.63642  20251099.74944  20251102.53142
       526.675         410.392
  24200119.015 3  -5191432.080 3  -4011422.81141  24200119.41843  24200121.03141
      1098.216         855.751
  22195629.025 3 -14953150.536 3 -11602809.60842  22195629.03343  22195632.23842
      2561.341        1995.852
  22946519.676 3  -9423731.335 3  -7287590.98442  22946520.05543  22946522.28242
      3360.940        2618.910
  21285451.731 3 -21661070.928 3 -16828823.56142  21285451.31643  21285454.29142
     -1224.067        -953.817
  23978356.454 3  -7773304.895 3  -6033777.28641  23978356.16343  23978362.50141
     -2932.909       -2285.374
  23602053.184 3  -7569307.041 3  -5851706.63542  23602052.48343  23602054.69642
      3416.343        2662.068
  24217199.716 3  -5564341.779 3  -4308504.55041  24217200.04543  24217202.35141
       -20.704         -16.138
  21469093.931 3 -18978653.976 3 -14732014.53842  21469093.82343  21469096.60342
     -1796.040       -1399.503
 04  2  2  1 33  0.0000000  0 11G31G13G 8G21G29G26G10G17G28G 3G27
  24131320.010 3  -1453196.371 3  -1098395.84541  24131319.83843  24131323.23641
      2213.362        1724.693
  24403780.974 3  -5372025.991 3  -4127271.11641  24403781.10043  24403784.87941
     -3602.719       -2807.322
  20249610.266 4 -29262463.838 4 -22741351.59942  20249609.84744  20249612.46142
       517.421         403.183
  24196998.381 3  -5207831.438 3  -4024201.53042  24196998.62143  24197000.34942
      1088.347         848.064
  22188325.405 3 -14991533.022 3 -11632718.04242  22188325.83443  22188327.92742
      2556.343        1991.948
  22936932.209 3  -9474115.310 3  -7326851.23142  22936931.77543  22936934.72642
      3356.928        2615.796
  21288960.305 3 -21642634.184 3 -16814457.27042  21288959.40843  21288962.49142
     -1234.189        -961.705
  23986737.769 3  -7729267.440 3  -5999462.39341  23986735.44343  23986742.67541
     -2938.460       -2289.701
  23592306.646 3  -7620523.850 3  -5891615.81342  23592306.67243  23592309.51242
      3412.528        2659.121
  24217273.981 3  -5563952.810 3  -4308201.44341  24217274.30943  24217276.13741
       -31.011         -24.160
  21474229.200 3 -18951668.256 3 -14710986.70342  21474229.22343  21474231.83442
     -1802.030       -1404.186
 04  2  2  1 33 15.0000000  0 11G31G13G 8G21G29G26G10G17G28G 3G27
  24125012.072 3  -1486343.725 3  -1124224.94041  24125012.50943  24125016.11841
      2206.793        1719.581
  24414067.726 3  -5317975.114 3  -4085153.58341  24414068.22343  24414069.58241
     -3604.164       -2808.449
  20248145.495 4 -29270160.127 4 -22747348.70542  20248145.35444  20248147.92142
       509.031         396.644
  24193906.803 3  -5224084.714 3  -4036866.41742  24193906.31543  24193907.79042
      1079.123         840.875
  22181034.455 3 -15029846.964 3 -11662573.06142  22181034.93043  22181037.09642
      2552.271        1988.797
  22927355.056 3  -9524442.972 3  -7366067.59042  22927355.31043  22927357.41842
      3353.873        2613.390
  21292496.528 3 -21624049.923 3 -16799976.03042  21292495.87843  21292499.00342
     -1243.475        -968.946
  23995134.194 3  -7685149.987 3  -5965085.19241  23995133.31143  23995136.71241
     -2943.089       -2293.309
  23582571.103 3  -7671686.941 3  -5931483.13842  23582570.84743  23582572.63442
      3409.598        2656.840
  24217376.129 3  -5563416.376 3  -4307783.43741  24217376.28443  24217378.78341
       -40.192         -31.298
  21479380.488 3 -18924597.573 3 -14689892.66542  21479380.51243  21479383.03642
     -1807.204       -1408.217
 04  2  2  1 33 30.0000000  0 11G31G13G 8G21G29G26G10G17G28G 3G27
  24118728.494 3  -1519376.129 3  -1149964.48542  24118727.46343  24118729.98342
      2198.272        1712.940
  24424358.936 3  -5263895.821 3  -4043013.87041  24424358.75643  24424360.90741
     -3606.161       -2809.998
  20246706.862 4 -29277721.975 4 -22753241.05242  20246706.37444  20246708.93842
       499.773         389.427
  24190841.920 3  -5240191.865 3  -4049417.44541  24190841.26743  24190841.93241
      1069.150         833.108
  22173756.479 3 -15068092.498 3 -11692374.77442  22173756.90843  22173758.90442
      2547.482        1985.054
  22917789.029 3  -9574714.392 3  -7405240.11442  22917788.34443  22917790.96642
      3349.595        2610.086
  21296061.094 3 -21605318.527 3 -16785380.13942  21296060.39143  21296063.80542
     -1253.505        -976.763
  24003542.288 3  -7640952.848 3  -5930645.86941  24003542.54043  24003547.45041
     -2949.338       -2298.175
  23572844.879 3  -7722796.218 3  -5971308.54042  23572844.96743  23572847.56042
      3405.508        2653.648
  24217506.922 3  -5562732.575 3  -4307250.62041  24217507.23243  24217508.74741
       -50.150         -39.081
  21484548.078 3 -18897442.116 3 -14668732.56742  21484548.27943  21484550.70142
     -1813.062       -1412.765
 04  2  2  1 33 45.0000000  0 11G31G13G 8G21G29G26G10G17G28G 3G27
  24112463.996 3  -1552293.200 3  -1175614.14142  24112463.86343  24112467.05342
      2190.410        1706.805
  24434655.139 3  -5209788.358 3  -4000852.21641  24434654.85343  24434656.95941
     -3608.119       -2811.518
  20245293.347 4 -29285149.173 4 -22759028.47442  20245292.96444  20245295.64842
       490.503         382.216
  24187803.420 3  -5256152.733 3  -4061854.47041  24187804.10743  24187803.92941
      1059.086         825.265
  22166491.546 3 -15106269.133 3 -11722122.79942  22166491.95443  22166493.90042
      2542.718        1981.357
  22908233.995 3  -9624928.925 3  -7444368.32842  22908233.84243  22908235.96942
      3345.512        2606.872
  21299653.372 3 -21586439.909 3 -16770669.53242  21299653.09843  21299656.09842
     -1263.627        -984.641
  24011969.539 3  -7596676.451 3  -5896144.78641  24011969.39443  24011973.23441
     -2954.923       -2302.530
  23563129.081 3  -7773851.194 3  -6011091.62942  23563130.31843  23563131.77642
      3401.679        2650.657
  24217664.685 3  -5561901.184 3  -4306602.77141  24217664.28043  24217668.09141
       -60.654         -47.275
  21489731.711 3 -18870201.970 3 -14647506.48342  21489731.64243  21489734.47042
     -1818.955       -1417.369
 04  2  2  1 34  0.0000000  0 11G31G13G 8G21G29G26G10G17G28G 3G27
  24106222.287 3  -1585094.634 3  -1201173.67142  24106221.39743  24106224.46642
      2182.990        1701.022
  24444956.567 3  -5155652.452 3  -3958668.41541  24444957.18143  24444959.53541
     -3610.047       -2813.031
  20243905.620 4 -29292441.728 4 -22764710.98142  20243905.13044  20243908.04042
       481.509         375.193
  24184794.066 3  -5271967.188 3  -4074177.42941  24184793.52843  24184795.53741
      1049.247         817.606
  22159239.910 3 -15144376.787 3 -11751817.07842  22159240.13743  22159242.63342
      2538.010        1977.658
  22898688.679 3  -9675086.602 3  -7483452.24542  22898689.13243  22898691.19042
      3341.809        2604.001
  21303273.736 3 -21567414.322 3 -16755844.40642  21303273.28143  21303276.92042
     -1273.432        -992.284
  24020410.122 3  -7552321.143 3  -5861582.24441  24020409.63543  24020411.80241
     -2959.524       -2306.133
  23553424.392 3  -7824851.619 3  -6050832.20342  23553423.77443  23553426.94142
      3398.181        2647.917
  24217849.757 3  -5560922.327 3  -4305840.03041  24217849.75243  24217854.39941
       -70.295         -54.775
  21494931.338 3 -18842877.312 3 -14626214.54242  21494931.42343  21494933.83242
     -1824.758       -1421.896
 04  2  2  1 34 15.0000000  0 11G31G13G 8G21G29G26G10G17G28G 3G27
  24100002.131 3  -1617780.185 3  -1226642.90042  24100001.33143  24100003.92642
      2174.598        1694.485
  24455262.913 3  -5101488.528 3  -3916462.77541  24455263.03943  24455266.25641
     -3611.997       -2814.547
  20242543.230 4 -29299599.911 4 -22770288.78842  20242542.91144  20242545.78542
       472.379         368.086
  24181811.042 3  -5287635.178 3  -4086386.26841  24181811.77243  24181814.33241
      1039.206         809.770
  22152001.876 3 -15182415.364 3 -11781457.53142  22152002.29343  22152003.90242
      2533.089        1973.836
  22889154.937 3  -9725187.321 3  -7522491.76742  22889154.86843  22889157.17142
      3337.827        2600.905
  21306922.162 3 -21548242.036 3 -16740904.96642  21306921.47643  21306925.06842
     -1283.423       -1000.062
  24028866.262 3  -7507887.437 3  -5826958.59941  24028866.54643  24028869.15041
     -2965.128       -2310.486
  23543730.581 3  -7875797.326 3  -6090530.14942  23543729.64343  23543732.05342
      3394.216        2644.846
  24218065.979 3  -5559796.160 3  -4304962.51541  24218065.35543  24218067.93041
       -80.296         -62.561
  21500147.024 3 -18815468.411 3 -14604856.96442  21500146.85243  21500149.97842
     -1830.463       -1426.342
 04  2  2  1 34 30.0000000  0 11G31G13G 8G21G29G26G10G17G28G 3G27
  24093803.605 3  -1650349.448 3  -1252021.52542  24093805.20943  24093806.43442
      2167.313        1688.812
  24465575.497 3  -5047296.606 3  -3874235.32841  24465575.44343  24465579.48441
     -3613.541       -2815.735
  20241206.795 4 -29306623.404 4 -22775761.63942  20241206.39344  20241209.23142
       463.842         361.444
  24178860.487 3  -5303156.482 3  -4098480.78341  24178859.57843  24178860.05941
      1029.885         802.516
  22144776.451 3 -15220384.581 3 -11811043.93542  22144776.43443  22144778.70042
      2529.136        1970.746
  22879632.007 3  -9775230.654 3  -7561486.57742  22879632.26343  22879634.58142
      3334.421        2598.249
  21310598.548 3 -21528923.026 3 -16725851.19542  21310597.94943  21310601.18442
     -1292.685       -1007.270
  24037336.051 3  -7463375.755 3  -5792274.19841  24037335.93343  24037339.00341
     -2969.892       -2314.195
  23534045.984 3  -7926687.879 3  -6130185.10642  23534045.93743  23534048.11942
      3390.936        2642.277
  24218309.126 3  -5558522.597 3  -4303970.13942  24218308.31043  24218311.12942
       -89.577         -69.803
  21505379.064 3 -18787975.328 3 -14583433.78842  21505378.69143  21505381.57542
     -1835.541       -1430.286
 04  2  2  1 34 45.0000000  0 11G31G13G 8G21G29G26G10G17G28G 3G27
  24087629.088 3  -1682801.992 3  -1277309.19942  24087627.99943  24087629.82742
      2159.928        1683.070
  24475893.956 3  -4993077.029 3  -3831986.32741  24475894.02043  24475897.13941
     -3615.675       -2817.412
  20239895.732 4 -29313512.446 4 -22781129.72442  20239895.46944  20239898.36142
       454.868         354.449
  24175933.531 3  -5318530.946 3  -4110460.89641  24175934.23843  24175934.78041
      1020.247         795.004
  22137563.987 3 -15258284.216 3 -11840576.11742  22137564.75043  22137566.64442
      2524.315        1967.000
  22870120.064 3  -9825216.313 3  -7600436.45542  22870120.88043  22870121.92942
      3330.430        2595.148
  21314303.217 3 -21509457.449 3 -16710683.21542  21314302.34043  21314305.51042
     -1302.570       -1014.973
  24045820.506 3  -7418786.378 3  -5757529.27641  24045821.06943  24045824.97641
     -2975.341       -2318.433
  23524371.976 3  -7977522.877 3  -6169796.77542  23524371.29543  23524375.13242
      3386.826        2639.076
  24218578.335 3  -5557101.428 3  -4302862.74242  24218577.79143  24218580.90642
       -99.624         -77.633
  21510626.625 3 -18760398.142 3 -14561945.07742  21510626.93343  21510629.46842
     -1841.284       -1434.751
 04  2  2  1 35  0.0000000  0 11G31G13G 8G21G29G26G10G17G28G 3G27
  24081474.484 3  -1715137.432 3  -1302505.63241  24081474.00143  24081477.11841
      2151.229        1676.276
  24486217.584 3  -4938830.001 3  -3789715.92741  24486217.20043  24486219.40041
     -3617.981       -2819.203
  20238610.478 4 -29320266.618 4 -22786392.71142  20238610.09644  20238612.99542
       445.296         346.983
  24173035.985 3  -5333758.309 3  -4122326.37441  24173035.88943  24173037.28341
      1009.604         786.708
  22130365.419 3 -15296113.954 3 -11870053.83542  22130365.04743  22130367.12942
      2519.217        1963.020
  22860619.007 3  -9875144.089 3  -7639341.21142  22860619.52943  22860621.77742
      3326.213        2591.864
  21318034.767 3 -21489845.546 3 -16695401.21842  21318034.03543  21318037.18142
     -1312.899       -1023.041
  24054319.133 3  -7374119.736 3  -5722724.14341  24054319.05543  24054325.00141
     -2980.788       -2322.687
  23514709.277 3  -8028302.114 3  -6209364.99742  23514708.49743  23514712.14942
      3383.010        2636.100
  24218877.385 3  -5555532.744 3  -4301640.39442  24218877.01343  24218879.82142
      -109.935         -85.660
  21515890.210 3 -18732737.025 3 -14540390.95642  21515890.11643  21515893.08042
     -1847.451       -1439.567
 04  2  2  1 35 15.0000000  0 11G31G13G 8G21G29G26G10G17G28G 3G27
  24075344.009 3  -1747355.591 3  -1327610.68441  24075343.68143  24075347.58141
      2144.109        1670.732
  24496544.853 3  -4884555.625 3  -3747424.22341  24496544.58143  24496546.77141
     -3619.016       -2820.008
  20237350.904 4 -29326886.264 4 -22791550.87642  20237350.77444  20237353.60342
       436.971         340.503
  24170167.276 3  -5348838.647 3  -4134077.27241  24170165.93943  24170166.77541
      1000.728         779.787
  22123179.962 3 -15333873.740 3 -11899477.03842  22123179.81243  22123182.04942
      2514.997        1959.735
  22851128.584 3  -9925013.823 3  -7678200.73042  22851129.15343  22851131.19342
      3322.706        2589.142
  21321794.767 3 -21470087.474 3 -16680005.32542  21321793.97643  21321797.18342
     -1321.961       -1030.100
  24062835.018 3  -7329376.265 3  -5687859.14341  24062833.51943  24062837.93141
     -2985.507       -2326.369
  23505056.627 3  -8079025.253 3  -6248889.51142  23505056.18543  23505059.64742
      3379.864        2633.640
  24219202.015 3  -5553816.632 3  -4300303.16642  24219201.56343  24219205.94142
      -119.142         -92.832
  21521170.023 3 -18704992.240 3 -14518771.64742  21521170.13243  21521173.05942
     -1852.367       -1443.398
 04  2  2  1 35 30.0000000  0 11G31G13G 8G21G29G26G10G17G28G 3G27
  24069235.825 3  -1779456.050 3  -1352624.01041  24069233.46343  24069237.68441
      2136.455        1664.765
  24506877.644 3  -4830254.003 3  -3705111.28741  24506878.11843  24506880.10741
     -3621.179       -2821.696
  20236117.038 4 -29333371.182 4 -22796604.05542  20236116.59644  20236119.51142
       427.831         333.366
  24167324.939 3  -5363771.709 3  -4145713.41942  24167324.55743  24167326.07642
       990.629         771.920
  22116007.856 3 -15371563.322 3 -11928845.54142  22116007.70643  22116010.60242
      2510.222        1956.006
  22841649.028 3  -9974825.193 3  -7717014.78142  22841650.52743  22841653.34742
      3318.859        2586.120
  21325582.597 3 -21450183.268 3 -16664495.55742  21325581.61343  21325584.96342
     -1331.863       -1037.829
  24071363.810 3  -7284556.277 3  -5652934.50841  24071364.29443  24071368.64041
     -2990.565       -2330.323
  23495415.059 3  -8129691.997 3  -6288370.07342  23495415.52043  23495417.72542
      3375.772        2630.485
  24219558.044 3  -5551952.892 3  -4298850.89541  24219558.17543  24219560.86041
      -129.311        -100.780
  21526465.929 3 -18677163.880 3 -14497087.21242  21526465.66043  21526468.02042
     -1858.140       -1447.909
 04  2  2  1 35 45.0000000  0 11G31G13G 8G21G29G26G10G17G28G 3G27
  24063150.198 3  -1811438.479 3  -1377545.36641  24063149.53043  24063152.39441
      2128.001        1658.191
  24517216.354 3  -4775925.380 3  -3662777.30441  24517215.56043  24517217.65941
     -3623.095       -2823.199
  20234908.491 4 -29339721.598 4 -22801552.43142  20234908.20044  20234910.79442
       418.651         326.226
  24164512.243 3  -5378557.541 3  -4157234.82542  24164511.70443  24164512.39742
       980.597         764.089
  22108849.252 3 -15409182.562 3 -11958159.23342  22108849.56043  22108851.56742
      2505.502        1952.356
  22832182.151 3 -10024577.962 3  -7755783.17042  22832182.31343  22832185.81042
      3314.714        2582.899
  21329397.775 3 -21430133.086 3 -16648872.03942  21329397.20543  21329400.28542
     -1341.745       -1045.518
  24079907.615 3  -7239660.260 3  -5617950.62041  24079907.73243  24079910.22541
     -2995.876       -2334.454
  23485784.170 3  -8180302.118 3  -6327806.51842  23485783.27143  23485785.54742
      3371.772        2627.361
  24219940.786 3  -5549941.688 3  -4297283.73241  24219941.10543  24219943.24041
      -139.367        -108.596
  21531777.011 3 -18649252.177 3 -14475337.83242  21531776.74643  21531779.66942
     -1863.807       -1452.304
 04  2  2  1 36  0.0000000  0 11G31G13G 8G21G29G26G10G17G28G 3G27
  24057086.437 3  -1843302.564 3  -1402374.51342  24057085.78243  24057087.81942
      2120.858        1652.620
  24527558.605 3  -4721570.008 3  -3620422.50541  24527559.82543  24527562.74541
     -3624.027       -2823.905
  20233725.726 4 -29345937.260 4 -22806395.80342  20233725.38044  20233728.29442
       410.209         319.649
  24161725.506 3  -5393195.823 3  -4168641.27742  24161725.58743  24161727.53942
       971.153         756.740
  22101704.480 3 -15446731.168 3 -11987417.89042  22101704.57543  22101706.69542
      2501.328        1949.089
  22822726.400 3 -10074271.963 3  -7794505.76942  22822727.00043  22822728.13642
      3311.302        2580.245
  21333240.723 3 -21409937.098 3 -16633134.90442  21333240.17043  21333243.46442
     -1350.966       -1052.703
  24088465.486 3  -7194688.668 3  -5582907.85041  24088465.28543  24088467.82141
     -3000.352       -2337.937
  23476164.398 3  -8230855.186 3  -6367198.50342  23476163.57543  23476166.94142
      3368.865        2625.088
  24220352.430 3  -5547782.995 3  -4295601.63941  24220352.62343  24220353.46541
      -148.722        -115.900
  21537104.532 3 -18621257.188 3 -14453523.55442  21537104.39043  21537107.16542
     -1868.776       -1456.191
 04  2  2  1 36 15.0000000  0 11G31G13G 8G21G29G26G10G17G28G 3G27
  24051045.320 3  -1875047.892 3  -1427111.11642  24051045.75843  24051048.18742
      2112.142        1645.833
  24537907.325 3  -4667187.907 3  -3578046.85541  24537908.61943  24537912.06041
     -3626.593       -2825.936
  20232568.375 4 -29352018.304 4 -22811134.27942  20232568.02844  20232570.86642
       400.885         312.365
  24158968.040 3  -5407686.400 3  -4179932.64041  24158967.59343  24158969.02841
       961.169         748.957
  22094572.337 3 -15484209.028 3 -12016621.41942  22094571.81643  22094573.98942
      2496.063        1944.976
  22813280.594 3 -10123906.831 3  -7833182.29042  22813280.36743  22813282.95542
      3307.109        2576.953
  21337111.851 3 -21389595.394 3 -16617284.23442  21337110.98943  21337114.11442
     -1360.993       -1060.529
  24097037.829 3  -7149641.654 3  -5547806.30641  24097037.27243  24097041.27841
     -3005.722       -2342.126
  23466554.771 3  -8281350.901 3  -6406545.80242  23466555.11843  23466557.27242
      3364.398        2621.598
  24220790.801 3  -5545476.699 3  -4293804.50442  24220791.01243  24220793.56842
      -158.723        -123.691
  21542447.809 3 -18593179.058 3 -14431644.49242  21542447.59343  21542449.74342
     -1874.738       -1460.845
 04  2  2  1 36 30.0000000  0 11G31G13G 8G21G29G26G10G17G28G 3G27
  24045027.882 3  -1906674.218 3  -1451754.99442  24045026.40643  24045028.96542
      2104.039        1639.519
  24548261.851 3  -4612779.297 3  -3535650.56441  24548263.12843  24548263.94141
     -3628.404       -2827.331
  20231436.793 4 -29357964.620 4 -22815767.77242  20231436.75044  20231439.57242
       391.579         305.121
  24156238.742 3  -5422029.329 3  -4191108.95241  24156238.24043  24156239.47241
       950.890         740.960
  22087454.031 3 -15521615.835 3 -12045769.58042  22087454.38643  22087456.24642
      2491.098        1941.104
  22803846.960 3 -10173482.391 3  -7871812.59242  22803847.42543  22803849.60442
      3302.656        2573.495
  21341010.687 3 -21369108.118 3 -16601320.13042  21341009.91943  21341012.85942
     -1371.065       -1068.365
  24105624.509 3  -7104519.826 3  -5512646.46641  24105623.54443  24105629.08641
     -3011.135       -2346.348
  23456957.394 3  -8331788.899 3  -6445848.11942  23456957.34443  23456959.99242
      3360.337        2618.450
  24221258.022 3  -5543022.889 3  -4291892.43542  24221257.75143  24221259.10242
      -168.921        -131.623
  21547806.399 3 -18565017.973 3 -14409700.79042  21547806.36143  21547808.81142
     -1880.517       -1465.348
 04  2  2  1 36 45.0000000  0 11G31G13G 8G21G29G26G10G17G28G 3G27
  24039030.900 3  -1938181.186 3  -1476305.85041  24039031.30243  24039033.30641
      2096.801        1633.862
  24558620.534 3  -4558344.211 3  -3493233.63341  24558621.87343  24558623.36141
     -3629.709       -2828.343
  20230331.011 4 -29363776.379 4 -22820296.41642  20230330.62844  20230333.45342
       383.324         298.706
  24153537.677 3  -5436224.368 3  -4202170.02541  24153536.69243  24153538.22241
       941.641         733.749
  22080349.447 3 -15558951.527 3 -12074862.32442  22080349.57743  22080351.20942
      2486.987        1937.927
  22794424.481 3 -10222998.339 3  -7910396.45142  22794425.37543  22794426.01542
      3299.367        2570.922
  21344936.715 3 -21348475.572 3 -16585242.82642  21344936.05343  21344939.23642
     -1379.968       -1075.298
  24114224.419 3  -7059323.631 3  -5477428.68941  24114225.13743  24114228.55941
     -3015.252       -2349.544
  23447370.985 3  -8382168.951 3  -6485105.29542  23447370.16343  23447373.17342
      3357.144        2615.950
  24221752.190 3  -5540421.486 3  -4289865.36442  24221752.12643  24221755.46742
      -178.051        -138.752
  21553180.817 3 -18536774.072 3 -14387692.56142  21553181.11043  21553183.65642
     -1885.363       -1469.101
 04  2  2  1 37  0.0000000  0 11G31G13G 8G21G29G26G10G17G28G 3G27
  24033057.707 3  -1969568.405 3  -1500763.40641  24033056.69043  24033060.72541
      2088.073        1627.064
  24568984.246 3  -4503882.906 3  -3450796.27541  24568985.13243  24568987.39641
     -3631.754       -2829.941
  20229250.620 4 -29369453.395 4 -22824720.06042  20229250.49444  20229253.20642
       373.660         291.153
  24150863.762 3  -5450271.335 3  -4213115.72441  24150864.37243  24150865.61241
       931.238         725.644
  22073258.109 3 -15596215.745 3 -12103899.37642  22073258.00443  22073260.08542
      2481.627        1933.739
  22785013.400 3 -10272454.546 3  -7948933.77642  22785013.95143  22785015.46542
      3294.753        2567.319
  21348890.544 3 -21327697.788 3 -16569052.35342  21348889.80843  21348893.06942
     -1390.377       -1083.419
  24122839.373 3  -7014053.338 3  -5442153.18141  24122838.16643  24122842.88241
     -3020.524       -2353.645
  23437794.481 3  -8432490.810 3  -6524317.11642  23437793.66043  23437796.99942
      3352.662        2612.457
  24222275.614 3  -5537672.460 3  -4287723.27442  24222276.57043  24222278.60142
      -188.379        -146.787
  21558571.612 3 -18508447.530 3 -14365619.93242  21558571.25343  21558573.83442
     -1891.511       -1473.916
 04  2  2  1 37 15.0000000  0 11G31G13G 8G21G29G26G10G17G28G 3G27
  24027108.274 3  -2000835.718 3  -1525127.54241  24027107.41043  24027110.28041
      2080.617        1621.261
  24579352.409 3  -4449395.808 3  -3408338.82241  24579353.06143  24579355.52541
     -3633.397       -2831.207
  20228196.036 4 -29374995.927 4 -22829038.91342  20228195.58944  20228198.31442
       365.009         284.426
  24148219.577 3  -5464170.362 3  -4223946.13441  24148220.12743  24148221.23141
       921.670         718.185
  22066180.385 3 -15633408.517 3 -12132880.75842  22066180.63743  22066183.02342
      2476.978        1930.138
  22775612.912 3 -10321850.855 3  -7987424.40942  22775614.05943  22775615.29542
      3291.118        2564.512
  21352871.831 3 -21306775.062 3 -16552748.93742  21352871.18943  21352874.35642
     -1399.708       -1090.671
  24131468.433 3  -6968709.528 3  -5406820.38441  24131467.35843  24131471.32441
     -3025.418       -2357.464
  23428229.955 3  -8482754.270 3  -6563483.43142  23428229.96343  23428231.72742
      3349.053        2609.653
  24222827.586 3  -5534776.124 3  -4285466.40142  24222826.42243  24222829.90542
      -197.905        -154.202
  21563977.683 3 -18480038.557 3 -14343483.07242  21563977.67343  21563979.66742
     -1896.684       -1477.927
 04  2  2  1 37 30.0000000  0 11G31G13G 8G21G29G26G10G17G28G 3G27
  24021180.966 3  -2031982.474 3  -1549397.72441  24021180.48643  24021184.50941
      2072.305        1614.780
  24589726.238 3  -4394882.706 3  -3365861.08941  24589725.66343  24589729.89741
     -3635.238       -2832.647
  20227166.886 4 -29380403.560 4 -22833252.65242  20227166.60144  20227169.45942
       355.563         277.055
  24145603.678 3  -5477920.986 3  -4234660.89342  24145602.80343  24145603.00342
       911.321         710.112
  22059116.511 3 -15670529.273 3 -12161806.02242  22059117.08443  22059119.53342
      2471.967        1926.217
  22766224.613 3 -10371186.825 3  -8025868.01042  22766225.42143  22766227.29942
      3286.669        2561.046
  21356880.885 3 -21285707.286 3 -16536332.49442  21356880.21943  21356883.91342
     -1409.808       -1098.556
  24140110.134 3  -6923292.293 3  -5371430.36341  24140110.24743  24140115.03941
     -3030.695       -2361.587
  23418676.026 3  -8532958.594 3  -6602603.66942  23418674.96843  23418678.33742
      3344.437        2606.039
  24223405.688 3  -5531732.119 3  -4283094.44742  24223405.65943  24223409.79942
      -208.275        -162.304
  21569399.526 3 -18451547.116 3 -14321281.94842  21569399.13743  21569401.64042
     -1902.579       -1482.540
 04  2  2  1 37 45.0000000  0 11G31G13G 8G21G29G26G10G17G28G 3G27
  24015277.030 3  -2063008.674 3  -1573573.96642  24015276.57443  24015280.68942
      2065.004        1609.089
  24600103.938 3  -4340344.004 3  -3323363.41841  24600103.13643  24600107.76941
     -3636.364       -2833.535
  20226163.791 4 -29385676.591 4 -22837361.50742  20226163.25744  20226165.95242
       347.295         270.614
  24143014.734 3  -5491523.456 3  -4245260.21542  24143014.85043  24143015.85342
       902.165         702.985
  22052066.354 3 -15707578.140 3 -12190675.26142  22052065.88143  22052069.33442
      2467.703        1922.881
  22756848.199 3 -10420462.322 3  -8064264.49142  22756848.69343  22756850.83142
      3283.381        2558.481
  21360917.850 3 -21264494.846 3 -16519803.32342  21360916.85443  21360920.40842
     -1418.731       -1105.508
  24148768.029 3  -6877802.274 3  -5335983.61441  24148767.87443  24148771.74741
     -3034.591       -2364.624
  23409133.012 3  -8583103.754 3  -6641677.78342  23409132.88443  23409136.10342
      3341.128        2603.465
  24224013.569 3  -5528540.646 3  -4280607.58542  24224014.45343  24224016.19542
      -217.373        -169.378
  21574837.162 3 -18422973.666 3 -14299016.92342  21574836.74843  21574838.98542
     -1907.399       -1486.281
 04  2  2  1 38  0.0000000  0 11G31G13G 8G21G29G26G10G17G28G 3G27
  24009396.253 3  -2093913.693 3  -1597655.77741  24009394.82943  24009399.18641
      2056.423        1602.409
  24610487.581 3  -4285779.914 3  -3280845.96841  24610489.24643  24610488.92041
     -3638.482       -2835.167
  20225185.809 4 -29390815.063 4 -22841365.50942  20225185.43444  20225188.12142
       338.310         263.621
  24140453.688 3  -5504977.465 3  -4255743.84342  24140454.22043  24140454.82342
       892.205         695.228
  22045029.820 3 -15744554.873 3 -12219488.29942  22045030.47943  22045032.35242
      2462.822        1919.096
  22747482.666 3 -10469677.139 3  -8102613.70042  22747483.14043  22747485.09642
      3279.109        2555.157
  21364981.625 3 -21243137.766 3 -16503161.44842  21364981.36843  21364984.42842
     -1428.479       -1113.090
  24157438.437 3  -6832239.895 3  -5300480.47041  24157437.73243  24157441.29741
     -3039.822       -2368.694
  23399602.876 3  -8633189.429 3  -6680705.56742  23399602.04543  23399605.33742
      3337.117        2600.345
  24224648.808 3  -5525201.756 3  -4278005.87142  24224648.50143  24224650.62142
      -227.384        -177.188
  21580290.045 3 -18394318.137 3 -14276687.93742  21580289.59243  21580291.86942
     -1912.994       -1490.642
 04  2  2  1 38 15.0000000  0 11G31G13G 8G21G29G26G10G17G28G 3G27
  24003538.248 3  -2124697.403 3  -1621643.06541  24003537.97443  24003540.38241
      2048.032        1595.869
  24620876.385 3  -4231190.446 3  -3238308.73141  24620876.24343  24620879.09541
     -3640.422       -2836.685
  20224233.572 4 -29395818.729 4 -22845264.46642  20224233.23844  20224235.94642
       328.934         256.307
  24137922.396 3  -5518282.824 3  -4266111.65641  24137922.56643  24137923.63541
       881.798         687.113
  22038007.110 3 -15781459.157 3 -12248244.88142  22038007.96543  22038009.56142
      2457.709        1915.102
  22738129.666 3 -10518830.925 3  -8140915.35542  22738130.21243  22738132.07842
      3274.510        2551.568
  21369073.275 3 -21221636.227 3 -16486407.00942  21369072.84543  21369075.78742
     -1438.445       -1120.867
  24166121.501 3  -6786605.417 3  -5264921.16141  24166120.91343  24166125.63841
     -3045.011       -2372.740
  23390082.176 3  -8683215.300 3  -6719686.73742  23390082.95243  23390085.40542
      3332.921        2597.078
  24225311.910 3  -5521715.384 3  -4275289.23742  24225311.48143  24225315.53342
      -237.374        -184.964
  21585758.357 3 -18365580.727 3 -14254295.14842  21585758.39443  21585760.58142
     -1918.789       -1495.148
 04  2  2  1 38 30.0000000  0 11G31G13G 8G21G29G26G10G17G28G 3G27
  23997704.306 3  -2155359.457 3  -1645535.56341  23997704.15743  23997703.86441
      2039.445        1589.168
  24631269.118 3  -4176575.898 3  -3195751.95441  24631269.03643  24631272.18141
     -3642.493       -2838.321
  20223307.170 4 -29400687.910 4 -22849058.63142  20223306.57244  20223309.40242
       319.813         249.198
  24135418.995 3  -5531439.475 3  -4276363.59842  24135417.69543  24135419.40242
       871.727         679.256
  22030998.603 3 -15818290.754 3 -12276944.82742  22030998.59243  22031001.13542
      2452.721        1911.211
  22728787.656 3 -10567923.444 3  -8179169.26642  22728788.07043  22728790.09842
      3270.233        2548.216
  21373192.631 3 -21199990.639 3 -16469540.32042  21373191.94343  21373195.25642
     -1448.207       -1128.483
  24174819.541 3  -6740899.290 3  -5229306.04041  24174818.38443  24174823.06341
     -3049.781       -2376.464
  23380574.544 3  -8733181.042 3  -6758621.06542  23380574.47743  23380576.80542
      3328.772        2593.849
  24226003.629 3  -5518081.473 3  -4272457.61842  24226002.71843  24226006.96442
      -247.572        -192.917
  21591242.724 3 -18336761.610 3 -14231838.69142  21591242.32343  21591244.75642
     -1924.337       -1499.485
 04  2  2  1 38 45.0000000  0 11G31G13G 8G21G29G26G10G17G28G 3G27
  23991891.502 3  -2185899.456 3  -1669332.95841  23991892.25343  23991893.80741
      2032.067        1583.427
  24641666.101 3  -4121936.391 3  -3153175.73041  24641666.13843  24641668.43941
     -3643.636       -2839.198
  20222406.029 4 -29405422.281 4 -22852747.74942  20222405.51844  20222408.59842
       311.355         242.615
  24132943.370 3  -5544447.376 3  -4286499.60242  24132942.96643  24132945.24542
       862.452         672.042
  22024004.206 3 -15855049.647 3 -12305588.12242  22024004.39243  22024006.51242
      2448.302        1907.770
  22719456.964 3 -10616954.466 3  -8217375.25642  22719457.70843  22719459.04342
      3266.799        2545.568
  21377339.218 3 -21178201.051 3 -16452561.42642  21377338.44943  21377341.53242
     -1457.297       -1135.553
  24183529.500 3  -6695122.005 3  -5193635.45141  24183528.95843  24183534.08141
     -3054.263       -2379.946
  23371078.309 3  -8783086.341 3  -6797508.29242  23371077.75543  23371080.46642
      3325.043        2590.949
  24226723.885 3  -5514300.044 3  -4269511.04442  24226723.33243  24226725.63142
      -256.927        -200.203
  21596742.139 3 -18307860.939 3 -14209318.68442  21596741.89843  21596744.40042
     -1929.264       -1503.340
 04  2  2  1 39  0.0000000  0 11G31G13G 8G21G29G26G10G17G28G 3G27
  23986104.373 3  -2216317.054 3  -1693034.98241  23986102.63343  23986106.19641
      2023.714        1576.914
  24652067.881 3  -4067272.075 3  -3110580.17541  24652066.56843  24652070.66741
     -3644.919       -2840.202
  20221531.033 4 -29410021.974 4 -22856331.92642  20221530.48644  20221533.00342
       302.244         235.513
  24130496.843 3  -5557306.174 3  -4296519.42442  24130496.85243  24130498.34442
       852.365         664.180
  22017022.520 3 -15891735.483 3 -12334174.48942  22017022.58443  22017024.72642
      2443.319        1903.860
  22710138.809 3 -10665923.800 3  -8255533.17042  22710138.75643  22710141.52242
      3262.651        2542.324
  21381512.988 3 -21156267.449 3 -16435470.31642  21381512.00343  21381515.68742
     -1467.021       -1143.139
  24192254.174 3  -6649273.794 3  -5157909.60941  24192254.41243  24192257.68441
     -3058.880       -2383.532
  23361592.794 3  -8832930.785 3  -6836348.10142  23361592.90543  23361595.54742
      3320.873        2587.688
  24227471.488 3  -5510371.110 3  -4266449.53642  24227471.71243  24227474.05442
      -266.774        -207.885
  21602257.029 3 -18278878.782 3 -14186735.17942  21602256.85543  21602259.72742
     -1934.834       -1507.680
 04  2  2  1 39 15.0000000  0 11G31G13G 8G21G29G26G10G17G28G 3G27
  23980339.209 3  -2246612.060 3  -1716641.45741  23980338.05743  23980340.65241
      2015.933        1570.852
  24662473.984 3  -4012583.223 3  -3067965.49541  24662474.37843  24662477.18441
     -3646.125       -2841.124
  20220681.140 4 -29414487.146 4 -22859811.27942  20220680.84544  20220683.49042
       293.792         228.941
  24128078.156 3  -5570015.969 3  -4306423.14842  24128077.36143  24128079.26042
       842.741         656.679
  22010055.079 3 -15928348.219 3 -12362703.89242  22010054.47643  22010057.35542
      2439.019        1900.543
  22700832.428 3 -10714831.156 3  -8293642.80742  22700833.42043  22700834.37042
      3258.993        2539.477
  21385713.555 3 -21134190.284 3 -16418267.33642  21385713.55943  21385716.19842
     -1476.002       -1150.109
  24200992.559 3  -6603355.227 3  -5122128.92341  24200992.27443  24200996.21441
     -3062.859       -2386.642
  23352119.093 3  -8882714.261 3  -6875140.39642  23352118.60443  23352121.70942
      3317.371        2584.946
  24228246.050 3  -5506294.856 3  -4263273.23242  24228245.89443  24228250.26142
      -276.248        -215.260
  21607787.475 3 -18249815.598 3 -14164088.54442  21607787.28943  21607790.03842
     -1939.647       -1511.397
 04  2  2  1 39 30.0000000  0 11G31G13G 8G21G29G26G10G17G28G 3G27
  23974597.262 3  -2276783.977 3  -1740152.03142  23974596.74643  23974598.43642
      2007.100        1563.976
  24672886.415 3  -3957869.785 3  -3025331.67241  24672887.90243  24672889.04841
     -3648.513       -2842.985
  20219857.178 4 -29418817.567 4 -22863185.63142  20219856.52744  20219859.38542
       284.122         221.389
  24125687.262 3  -5582576.528 3  -4316210.59242  24125687.94743  24125688.66342
       832.145         648.420
  22003102.357 3 -15964887.398 3 -12391175.97842  22003102.07443  22003104.21742
      2433.467        1896.197
  22691536.762 3 -10763676.294 3  -8331703.95342  22691537.05143  22691539.47642
      3254.230        2535.777
  21389942.670 3 -21111969.430 3 -16400952.39342  21389941.90443  21389944.67342
     -1486.158       -1158.047
  24209744.328 3  -6557366.680 3  -5086293.70541  24209744.24743  24209748.01141
     -3068.424       -2390.981
  23342658.243 3  -8932436.347 3  -6913884.86742  23342657.97343  23342660.33242
      3312.770        2581.388
  24229050.398 3  -5502071.065 3  -4259981.97742  24229050.31343  24229054.74042
      -286.386        -223.157
  21613333.581 3 -18220671.188 3 -14141378.61742  21613333.61843  21613336.37342
     -1945.697       -1516.140
 04  2  2  1 39 45.0000000  0 11G31G13G 8G21G29G26G10G17G28G 3G27
  23968878.605 3  -2306832.579 3  -1763566.52742  23968879.47143  23968881.10242
      1998.937        1557.616
  24683302.862 3  -3903131.996 3  -2982678.85341  24683303.11243  24683305.75941
     -3650.349       -2844.418
  20219058.719 4 -29423013.398 4 -22866455.10942  20219058.40544  20219060.95442
       275.066         214.331
  24123326.057 3  -5594987.953 3  -4325881.83142  24123324.75643  24123326.39342
       822.203         640.679
  21996162.887 3 -16001353.089 3 -12419590.80142  21996163.18443  21996165.63942
      2428.356        1892.222
  22682253.567 3 -10812459.068 3  -8369716.50342  22682253.90943  22682256.36742
      3249.696        2532.231
  21394198.124 3 -21089605.170 3 -16383525.69642  21394197.60443  21394200.26442
     -1495.959       -1165.683
  24218508.679 3  -6511308.595 3  -5050404.33241  24218507.58443  24218513.01441
     -3072.875       -2394.443
  23333206.838 3  -8982096.824 3  -6952581.31142  23333206.04043  23333209.97942
      3308.412        2577.985
  24229881.347 3  -5497699.929 3  -4256575.89542  24229882.82143  24229885.61442
      -296.468        -231.009
  21618895.351 3 -18191445.910 3 -14118605.67342  21618894.91343  21618897.54142
     -1951.282       -1520.483
 04  2  2  1 40  0.0000000  0 11G31G13G 8G21G29G26G10G17G28G 3G27
  23963184.403 3  -2336757.497 3  -1786884.65042  23963183.99843  23963185.59942
      1991.203        1551.589
  24693724.065 3  -3848370.063 3  -2940007.24341  24693725.54343  24693725.41441
     -3651.238       -2845.098
  20218285.975 4 -29427074.484 4 -22869619.58942  20218285.46044  20218288.22342
       266.631         207.766
  24120992.239 3  -5607250.009 3  -4335436.68242  24120991.74943  24120992.24642
       812.788         633.344
  21989237.680 3 -16037744.990 3 -12447948.12242  21989238.00043  21989240.54342
      2424.040        1888.863
  22672982.761 3 -10861179.140 3  -8407680.20442  22672983.17843  22672984.42442
      3246.148        2529.459
  21398481.071 3 -21067097.654 3 -16365987.37542  21398480.71443  21398483.96042
     -1504.941       -1172.679
  24227285.066 3  -6465181.306 3  -5014461.07141  24227285.07443  24227288.88241
     -3077.067       -2397.717
  23323768.674 3  -9031695.297 3  -6991229.44442  23323768.46743  23323771.29642
      3304.770        2575.180
  24230742.817 3  -5493181.398 3  -4253054.96742  24230743.78543  24230744.41342
      -305.874        -238.343
  21624471.567 3 -18162139.818 3 -14095769.75842  21624471.31943  21624474.16042
     -1956.010       -1524.161
 04  2  2  1 40 15.0000000  0 11G31G13G 8G21G29G26G10G17G28G 3G27
  23957513.735 3  -2366558.467 3  -1810106.17542  23957513.86043  23957515.43142
      1982.708        1544.969
  24704149.216 3  -3793584.290 3  -2897317.02641  24704149.76343  24704152.06941
     -3652.937       -2846.449
  20217538.490 4 -29431001.084 4 -22872679.27542  20217538.16444  20217541.21942
       257.424         200.595
  24118687.429 3  -5619362.768 3  -4344875.18442  24118686.64243  24118688.45142
       802.740         625.515
  21982326.342 3 -16074062.937 3 -12476247.81942  21982326.70743  21982329.12242
      2418.750        1884.731
  22663723.168 3 -10909836.215 3  -8445594.80642  22663724.04943  22663725.85842
      3241.784        2526.086
  21402791.377 3 -21044447.154 3 -16348337.64042  21402790.52043  21402793.91742
     -1514.689       -1180.279
  24236078.095 3  -6418985.212 3  -4978464.17641  24236078.37243  24236081.92041
     -3082.064       -2401.602
  23314342.662 3  -9081231.419 3  -7029829.00242  23314342.59643  23314345.48342
      3300.381        2571.736
  24231630.449 3  -5488515.538 3  -4249419.23342  24231630.16543  24231632.53142
      -315.698        -246.009
  21630063.705 3 -18132753.075 3 -14072871.00242  21630063.60343  21630066.23442
     -1961.772       -1528.653
 04  2  2  1 40 30.0000000  0 11G31G13G 8G21G29G26G10G17G28G 3G27
  23951866.557 3  -2396235.089 3  -1833230.80642  23951866.40943  23951869.27142
      1974.125        1538.280
  24714579.021 3  -3738774.619 3  -2854608.19341  24714578.76943  24714582.85641
     -3654.754       -2847.861
  20216816.941 4 -29434792.915 4 -22875633.94842  20216816.59344  20216819.55342
       248.178         193.384
  24116410.107 3  -5631325.836 3  -4354197.07342  24116409.84843  24116412.14942
       792.467         617.501
  21975430.213 3 -16110306.608 3 -12504489.64042  21975429.91643  21975432.25042
      2413.550        1880.693
  22654476.133 3 -10958430.101 3  -8483460.18442  22654476.65043  22654478.53942
      3237.415        2522.665
  21407128.572 3 -21021653.744 3 -16330576.54942  21407128.17143  21407131.50542
     -1524.418       -1187.867
  24244880.042 3  -6372720.572 3  -4942413.83241  24244879.35043  24244886.16841
     -3086.771       -2405.256
  23304928.333 3  -9130704.822 3  -7068379.69542  23304929.18443  23304930.97342
      3296.081        2568.381
  24232546.134 3  -5483702.302 3  -4245668.65042  24232545.83943  24232548.79242
      -326.062        -254.098
  21635671.057 3 -18103285.827 3 -14049909.51242  21635670.76343  21635673.35842
     -1967.298       -1532.960
 04  2  2  1 40 45.0000000  0 11G31G13G 8G21G29G26G10G17G28G 3G27
  23946242.837 3  -2425787.142 3  -1856258.37341  23946242.48943  23946245.58241
      1965.677        1531.699
  24725014.267 3  -3683941.387 3  -2811881.01041  24725013.59543  24725016.81441
     -3656.130       -2848.932
  20216120.970 4 -29438450.246 4 -22878483.81442  20216120.67844  20216123.44242
       239.419         186.559
  24114163.222 3  -5643139.198 3  -4363402.29242  24114162.49743  24114163.94742
       782.701         609.904
  21968547.271 3 -16146475.808 3 -12532673.43342  21968547.59243  21968548.75842
      2408.883        1877.053
  22645241.385 3 -11006960.572 3  -8521276.12942  22645241.03243  22645244.89842
      3233.162        2519.361
  21411493.395 3 -20998717.629 3 -16312704.25342  21411492.91743  21411496.27342
     -1533.842       -1195.202
  24253697.061 3  -6326388.061 3  -4906310.60241  24253699.08543  24253700.60141
     -3091.220       -2408.732
  23295525.640 3  -9180115.439 3  -7106881.45942  23295524.96843  23295528.50642
      3292.193        2565.345
  24233489.868 3  -5478741.819 3  -4241803.35142  24233490.27143  24233492.40942
      -335.659        -261.537
  21641293.600 3 -18073738.377 3 -14026885.52942  21641294.01443  21641296.35442
     -1972.379       -1536.924
 04  2  2  1 41  0.0000000  0 11G31G13G 8G21G29G26G10G17G28G 3G27
  23940642.606 3  -2455214.214 3  -1879188.53741  23940642.59643  23940644.82741
      1957.128        1525.041
  24735452.674 3  -3629084.648 3  -2769135.49041  24735453.34643  24735455.02241
     -3658.211       -2850.575
  20215450.486 4 -29441972.881 4 -22881228.72142  20215450.19244  20215452.97842
       230.126         179.314
  24111943.077 3  -5654802.749 3  -4372490.75842  24111943.23643  24111943.68242
       772.381         601.856
  21961678.668 3 -16182570.389 3 -12560799.07942  21961678.56643  21961681.03542
      2403.571        1872.895
  22636018.661 3 -11055427.361 3  -8559042.45942  22636018.48943  22636021.64742
      3228.977        2516.078
  21415885.176 3 -20975638.944 3 -16294720.87042  21415884.58443  21415888.03742
     -1543.540       -1202.767
  24262528.487 3  -6279988.023 3  -4870154.75641  24262527.44943  24262532.09541
     -3095.742       -2412.276
  23286135.537 3  -9229462.866 3  -7145333.98842  23286135.32043  23286136.83242
      3287.598        2561.767
  24234461.631 3  -5473633.951 3  -4237823.19942  24234461.62143  24234464.37442
      -345.606        -269.305
  21646931.800 3 -18044110.769 3 -14003799.07742  21646931.96443  21646934.57842
     -1978.054       -1541.358
 04  2  2  1 41 15.0000000  0 11G31G13G 8G21G29G26G10G17G28G 3G27
  23935067.184 3  -2484516.144 3  -1902021.20342  23935066.86643  23935069.45342
      1949.538        1519.120
  24745895.519 3  -3574204.762 3  -2726371.94341  24745895.04843  24745897.49841
     -3658.748       -2850.950
  20214806.026 4 -29445361.028 4 -22883868.83242  20214805.60844  20214808.35042
       221.863         172.897
  24109752.645 3  -5666316.621 3  -4381462.59842  24109752.32243  24109754.35442
       763.005         594.548
  21954824.215 3 -16218590.268 3 -12588866.52442  21954824.96543  21954825.79342
      2399.286        1869.589
  22626807.835 3 -11103830.455 3  -8596759.15642  22626807.03843  22626810.53742
      3225.373        2513.282
  21420303.962 3 -20952417.989 3 -16276626.62742  21420303.70743  21420306.59342
     -1552.292       -1209.570
  24271369.331 3  -6233520.910 3  -4833946.64641  24271369.85343  24271372.50741
     -3099.497       -2415.203
  23276756.220 3  -9278746.880 3  -7183737.10642  23276756.53043  23276758.35042
      3284.028        2558.991
  24235462.412 3  -5468378.929 3  -4233728.38842  24235462.53643  24235464.67842
      -354.757        -276.429
  21652585.079 3 -18014403.304 3 -13980650.40142  21652584.89643  21652587.47142
     -1982.687       -1544.941
 04  2  2  1 41 30.0000000  0 11G31G13G 8G21G29G26G10G17G28G 3G27
  23929514.774 3  -2513692.420 3  -1924755.96842  23929513.94543  23929517.87542
      1940.943        1512.425
  24756343.262 3  -3519301.758 3  -2683590.39041  24756344.34543  24756346.88241
     -3661.000       -2852.724
  20214187.044 4 -29448614.574 4 -22886404.06042  20214186.61744  20214189.27042
       212.339         165.455
  24107590.314 3  -5677680.440 3  -4390317.50342  24107590.21443  24107592.63642
       752.576         586.421
  21947983.690 3 -16254535.081 3 -12616875.46542  21947983.78243  21947987.04442
      2393.858        1865.341
  22617608.439 3 -11152169.263 3  -8634425.75242  22617609.72343  22617611.56342
      3220.703        2509.614
  21424750.084 3 -20929054.702 3 -16258421.46942  21424749.41543  21424752.59242
     -1562.417       -1217.472
  24280224.251 3  -6186986.819 3  -4797686.35041  24280225.40943  24280227.27341
     -3104.572       -2419.141
  23267390.823 3  -9327966.863 3  -7222090.30842  23267390.48043  23267393.00742
      3279.187        2555.224
  24236489.928 3  -5462976.569 3  -4229518.76642  24236490.19543  24236493.31242
      -365.284        -284.654
  21658253.350 3 -17984615.846 3 -13957439.40142  21658252.97743  21658255.94242
     -1988.577       -1549.542
 04  2  2  1 41 45.0000000  0 11G31G13G 8G21G29G26G10G17G28G 3G27
  23923986.524 3  -2542742.843 3  -1947392.64741  23923987.15743  23923990.09141
      1932.796        1506.075
  24766795.204 3  -3464375.924 3  -2640791.05241  24766794.99543  24766798.97341
     -3662.172       -2853.651
  20213593.300 4 -29451733.552 4 -22888834.43442  20213593.20244  20213595.81142
       203.965         158.942
  24105456.269 3  -5688894.149 3  -4399055.43942  24105455.84243  24105458.71642
       742.958         578.947
  21941158.026 3 -16290404.669 3 -12644825.79242  21941158.21543  21941160.74042
      2389.292        1861.810
  22608422.932 3 -11200443.646 3  -8672042.15642  22608423.43643  22608425.06042
      3216.704        2506.541
  21429222.912 3 -20905549.467 3 -16240105.70442  21429222.15343  21429225.59242
     -1571.306       -1224.390
  24289092.294 3  -6140386.368 3  -4761374.34241  24289091.75943  24289097.03941
     -3108.534       -2422.230
  23258036.567 3  -9377122.810 3  -7260393.61642  23258036.38343  23258038.43542
      3275.110        2552.032
  24237546.414 3  -5457427.132 3  -4225194.51842  24237545.52543  24237548.83442
      -374.279        -291.640
  21663937.161 3 -17954748.826 3 -13934166.40242  21663936.84243  21663939.71742
     -1993.359       -1553.259
 04  2  2  1 42  0.0000000  0 11G31G13G 8G21G29G26G10G17G28G 3G27
  23918482.247 3  -2571667.002 3  -1969930.95641  23918482.18543  23918485.14941
      1923.540        1498.862
  24777251.368 3  -3409427.197 3  -2597973.87741  24777252.73843  24777254.09741
     -3663.786       -2854.926
  20213025.537 4 -29454717.920 4 -22891159.91342  20213025.06944  20213027.74942
       194.245         151.352
  24103351.058 3  -5699957.622 3  -4407676.33142  24103350.35743  24103351.69242
       732.254         570.576
  21934346.757 3 -16326198.789 3 -12672717.30942  21934346.99543  21934349.42442
      2383.504        1857.265
  22599248.479 3 -11248653.399 3  -8709608.19942  22599249.92043  22599251.78242
      3211.563        2502.498
  21433722.702 3 -20881902.410 3 -16221679.42842  21433722.21243  21433725.69042
     -1581.396       -1232.248
  24297973.350 3  -6093719.964 3  -4725010.94241  24297972.58843  24297976.20241
     -3113.293       -2425.942
  23248695.010 3  -9426214.200 3  -7298646.63542  23248694.30343  23248697.65142
      3270.365        2548.324
  24238630.249 3  -5451730.468 3  -4220755.56742  24238629.82943  24238631.96342
      -384.843        -299.879
  21669635.669 3 -17924802.206 3 -13910831.37442  21669635.39043  21669638.09042
     -1999.405       -1557.987
 04  2  2  1 42 15.0000000  0 11G31G13G 8G21G29G26G10G17G28G 3G27
  23913002.376 3  -2600464.702 3  -1992370.71242  23913003.44843  23913004.94342
      1915.096        1492.279
  24787712.056 3  -3354455.850 3  -2555139.08041  24787712.73443  24787717.51841
     -3665.774       -2856.458
  20212482.982 4 -29457567.823 4 -22893380.61642  20212482.51144  20212485.38042
       184.977         144.132
  24101273.234 3  -5710870.836 3  -4416180.13542  24101273.71643  24101274.13542
       721.933         562.542
  21927549.281 3 -16361917.275 3 -12700549.89242  21927549.67043  21927552.24642
      2378.111        1853.065
  22590087.302 3 -11296798.204 3  -8747123.64542  22590087.27143  22590089.19842
      3207.089        2499.010
  21438249.321 3 -20858113.716 3 -16203142.78842  21438248.70943  21438252.13442
     -1591.213       -1239.907
  24306867.287 3  -6046988.066 3  -4688596.50241  24306867.52243  24306868.80841
     -3118.391       -2429.898
  23239365.040 3  -9475240.884 3  -7336849.22642  23239365.12343  23239367.18742
      3265.709        2544.700
  24239741.857 3  -5445886.650 3  -4216201.94542  24239741.93843  24239744.47842
      -395.164        -307.918
  21675349.207 3 -17894776.177 3 -13887434.47042  21675348.92743  21675352.01042
     -2005.047       -1562.366
 04  2  2  1 42 30.0000000  0 11G31G13G 8G21G29G26G10G17G28G 3G27
  23907546.753 3  -2629135.597 3  -2014711.64942  23907546.19143  23907548.26442
      1907.301        1486.205
  24798177.123 3  -3299462.162 3  -2512286.88341  24798177.48543  24798180.31941
     -3667.020       -2857.409
  20211966.231 4 -29460283.253 4 -22895496.53742  20211965.93344  20211968.61042
       176.748         137.726
  24099226.991 3  -5721633.648 3  -4424566.73842  24099225.67843  24099227.30242
       712.563         555.261
  21920767.339 3 -16397559.992 3 -12728323.43442  21920767.18943  21920769.82042
      2373.917        1849.820
  22580937.281 3 -11344877.919 3  -8784588.35242  22580938.00543  22580940.77742
      3203.224        2495.993
  21442803.378 3 -20834183.688 3 -16184496.02242  21442802.80943  21442805.86442
     -1599.902       -1246.680
  24315771.364 3  -6000191.003 3  -4652131.29241  24315770.63443  24315774.40541
     -3121.813       -2432.577
  23230047.789 3  -9524202.610 3  -7375001.18442  23230047.80043  23230050.33742
      3261.936        2541.775
  24240883.232 3  -5439895.850 3  -4211533.79542  24240882.36843  24240883.83342
      -404.060        -314.846
  21681077.928 3 -17864671.136 3 -13863976.00042  21681078.30443  21681080.57342
     -2009.473       -1565.811
 04  2  2  1 42 45.0000000  0 11G31G13G 8G21G29G26G10G17G28G 3G27
  23902115.328 3  -2657679.297 3  -2036953.47842  23902114.66143  23902116.76642
      1898.815        1479.598
  24808647.618 3  -3244446.215 3  -2469417.34441  24808646.82043  24808650.85841
     -3668.343       -2858.449
  20211475.188 4 -29462864.086 4 -22897507.57242  20211474.86744  20211477.62642
       167.709         130.679
  24097207.152 3  -5732246.098 3  -4432836.17042  24097206.96743  24097207.00842
       702.627         547.499
  21913999.290 3 -16433126.620 3 -12756037.68642  21913999.08243  21914002.00542
      2368.531        1845.593
  22571800.858 3 -11392892.257 3  -8822002.11942  22571801.09343  22571803.67242
      3199.071        2492.772
  21447384.066 3 -20810112.298 3 -16165739.09242  21447383.26343  21447386.25842
     -1609.292       -1254.004
  24324689.000 3  -5953329.185 3  -4615615.60441  24324690.60043  24324692.00141
     -3126.475       -2436.220
  23220743.717 3  -9573098.945 3  -7413102.21242  23220744.12643  23220744.47942
      3257.647        2538.415
  24242050.744 3  -5433757.862 3  -4206750.94142  24242050.51343  24242052.81642
      -413.873        -322.504
  21686821.852 3 -17834486.872 3 -13840455.79242  21686821.35243  21686824.69142
     -2014.773       -1569.946
 04  2  2  1 43  0.0000000  0 11G31G13G 8G21G29G26G10G17G28G 3G27
  23896706.907 3  -2686095.539 3  -2059095.98642  23896707.71943  23896709.53042
      1890.186        1472.870
  24819121.251 3  -3189408.272 3  -2426530.63741  24819119.45343  24819124.25541
     -3669.443       -2859.310
  20211009.794 4 -29465310.432 4 -22899413.81742  20211009.64944  20211012.26542
       158.797         123.739
  24095215.039 3  -5742708.150 3  -4440988.41942  24095215.05043  24095215.99042
       692.870         539.903
  21907245.841 3 -16468617.050 3 -12783692.56442  21907245.81043  21907247.96242
      2363.669        1841.801
  22562676.884 3 -11440840.887 3  -8859364.69642  22562677.06843  22562678.65142
      3194.818        2489.490
  21451991.293 3 -20785899.906 3 -16146872.29842  21451991.08743  21451993.78742
     -1618.649       -1261.280
  24333617.907 3  -5906403.046 3  -4579049.79241  24333616.43143  24333621.58841
     -3130.356       -2439.244
  23211451.837 3  -9621929.514 3  -7451151.97942  23211450.91543  23211452.84242
      3253.423        2535.162
  24243246.436 3  -5427472.920 3  -4201853.58042  24243246.35043  24243249.34642
      -423.766        -330.195
  21692580.646 3 -17804223.851 3 -13816874.22542  21692580.63743  21692583.82242
     -2020.018       -1574.023
 04  2  2  1 43 15.0000000  0 11G31G13G 8G21G29G26G10G17G28G 3G27
  23891323.693 3  -2714384.054 3  -2081138.97042  23891323.45943  23891326.48542
      1882.065        1466.555
  24829598.551 3  -3134348.522 3  -2383626.94741  24829599.03343  24829601.45841
     -3670.958       -2860.497
  20210569.966 4 -29467622.412 4 -22901215.35942  20210569.53444  20210572.25842
       150.156         117.008
  24093253.555 3  -5753019.629 3  -4449023.32042  24093252.54743  24093253.90842
       682.974         532.179
  21900506.822 3 -16504031.147 3 -12811287.97242  21900506.83043  21900508.11242
      2358.749        1838.009
  22553564.051 3 -11488723.789 3  -8896676.04642  22553565.76543  22553566.35242
      3190.590        2486.188
  21456625.676 3 -20761546.733 3 -16127895.80542  21456624.75343  21456628.45442
     -1627.697       -1268.323
  24342559.409 3  -5859412.934 3  -4542434.17541  24342558.69043  24342562.82841
     -3134.559       -2442.481
  23202171.903 3  -9670694.101 3  -7489150.34542  23202171.83943  23202173.60642
      3249.421        2532.022
  24244470.217 3  -5421041.030 3  -4196841.72542  24244468.10443  24244473.04042
      -433.487        -337.774
  21698354.427 3 -17773882.080 3 -13793231.29242  21698354.47443  21698357.63642
     -2024.907       -1577.845
 04  2  2  1 43 30.0000000  0 11G31G13G 8G21G29G26G10G17G28G 3G27
  23885966.317 3  -2742544.438 3  -2103082.11642  23885964.64843  23885967.60742
      1873.083        1459.550
  24840079.944 3  -3079266.844 3  -2340706.19541  24840078.01643  24840081.52541
     -3673.015       -2862.086
  20210155.471 4 -29469799.942 4 -22902912.13442  20210155.10744  20210157.86642
       141.011         109.876
  24091319.281 3  -5763180.325 3  -4456940.74242  24091319.63143  24091319.99742
       672.725         524.209
  21893782.265 3 -16539368.545 3 -12838823.60842  21893782.44243  21893783.96042
      2353.616        1833.983
  22544465.248 3 -11536540.511 3  -8933935.82842  22544465.91243  22544468.76542
      3185.630        2482.330
  21461286.437 3 -20737052.900 3 -16108809.70842  21461286.09143  21461289.30842
     -1637.327       -1275.846
  24351513.920 3  -5812359.282 3  -4505769.02341  24351512.73143  24351517.25341
     -3138.704       -2445.732
  23192904.396 3  -9719392.362 3  -7527097.02442  23192902.89643  23192906.09342
      3244.696        2528.325
  24245722.149 3  -5414462.225 3  -4191715.37042  24245721.72043  24245724.26442
      -443.193        -345.343
  21704143.235 3 -17743461.724 3 -13769527.11942  21704143.53643  21704146.00542
     -2030.437       -1582.170
 04  2  2  1 43 45.0000000  0 11G31G13G 8G21G29G26G10G17G28G 3G27
  23880631.375 3  -2770576.499 3  -2124925.28442  23880631.31543  23880633.87742
      1864.571        1452.908
  24850565.022 3  -3024163.707 3  -2297768.69441  24850565.36043  24850569.23941
     -3673.768       -2862.656
  20209766.607 4 -29471843.048 4 -22904504.16442  20209766.21644  20209768.92142
       131.861         102.751
  24089414.440 3  -5773190.231 3  -4464740.65942  24089413.63743  24089416.86542
       662.360         516.113
  21887072.591 3 -16574629.110 3 -12866299.37442  21887072.15143  21887074.29142
      2348.215        1829.768
  22535378.832 3 -11584290.894 3  -8971143.91742  22535379.33643  22535381.43642
      3181.248        2478.907
  21465974.316 3 -20712418.605 3 -16089614.15842  21465973.65443  21465976.83942
     -1646.875       -1283.280
  24360480.749 3  -5765242.658 3  -4469054.81341  24360478.72343  24360483.85541
     -3143.161       -2449.203
  23183650.147 3  -9768024.125 3  -7564991.87042  23183649.76643  23183653.14642
      3240.046        2524.708
  24247000.529 3  -5407736.500 3  -4186474.55542  24247001.70943  24247003.56842
      -453.232        -353.159
  21709947.393 3 -17712962.991 3 -13745761.86842  21709947.40643  21709949.63842
     -2035.718       -1586.282
 04  2  2  1 44  0.0000000  0 11G31G13G 8G21G29G26G10G17G28G 3G27
  23875321.381 3  -2798479.836 3  -2146668.12542  23875320.84143  23875323.25942
      1855.552        1445.880
  24861054.870 3  -2969039.178 3  -2254814.52341  24861055.82043  24861057.33641
     -3675.879       -2864.331
  20209403.308 4 -29473751.801 4 -22905991.50142  20209402.98444  20209405.59142
       122.501          95.458
  24087538.767 3  -5783049.278 3  -4472423.03242  24087537.68843  24087540.01642
       651.924         507.979
  21880376.881 3 -16609812.602 3 -12893715.07742  21880377.01143  21880379.36042
      2342.712        1825.483
  22526304.642 3 -11631974.605 3  -9008300.05742  22526304.78843  22526307.52042
      3176.320        2475.041
  21470688.958 3 -20687643.906 3 -16070309.20742  21470688.21443  21470691.38842
     -1656.621       -1290.878
  24369458.813 3  -5718063.331 3  -4432291.77141  24369458.35243  24369461.77041
     -3147.672       -2452.713
  23174409.609 3  -9816588.917 3  -7602834.54542  23174408.40743  23174410.79042
      3234.974        2520.751
  24248309.405 3  -5400863.995 3  -4181119.35142  24248308.73043  24248310.84342
      -463.261        -360.993
  21715765.822 3 -17682385.912 3 -13721935.57742  21715765.69143  21715768.33742
     -2041.405       -1590.711
 04  2  2  1 44 15.0000000  0 11G31G13G 8G21G29G26G10G17G28G 3G27
  23870036.795 3  -2826254.256 3  -2168310.51442  23870036.35743  23870039.83042
      1847.143        1439.329
  24871549.836 3  -2913893.538 3  -2211843.90141  24871548.43543  24871550.89641
     -3677.277       -2865.424
  20209065.622 4 -29475526.184 4 -22907374.13542  20209065.19444  20209068.27542
       113.832          88.704
  24085691.919 3  -5792757.548 3  -4479987.91242  24085690.57343  24085693.27242
       642.404         500.574
  21873696.660 3 -16644918.969 3 -12921070.69242  21873696.89143  21873699.17042
      2337.660        1821.562
  22517243.491 3 -11679591.563 3  -9045404.17842  22517243.71643  22517246.17742
      3172.241        2471.889
  21475430.387 3 -20662729.109 3 -16050895.08442  21475429.22043  21475432.19642
     -1665.616       -1297.886
  24378449.151 3  -5670821.770 3  -4395480.20741  24378448.35043  24378450.72541
     -3151.440       -2455.656
  23165180.332 3  -9865086.568 3  -7640624.91142  23165180.76943  23165183.01242
      3230.927        2517.615
  24249645.264 3  -5393844.766 3  -4175649.82342  24249645.21643  24249648.34942
      -472.747        -368.375
  21721599.247 3 -17651730.831 3 -13698048.50542  21721599.29643  21721601.42542
     -2046.294       -1594.503
 04  2  2  1 44 30.0000000  0 11G31G13G 8G21G29G26G10G17G28G 3G27
  23864775.623 3  -2853899.257 3  -2189852.07642  23864775.08443  23864777.70942
      1838.728        1432.777
  24882048.115 3  -2858726.703 3  -2168856.77541  24882048.41343  24882051.01341
     -3678.183       -2866.102
  20208753.457 4 -29477166.239 4 -22908652.09842  20208753.28244  20208756.08342
       104.835          81.693
  24083872.554 3  -5802314.837 3  -4487435.13742  24083872.29943  24083874.19842
       632.307         492.709
  21867030.395 3 -16679947.887 3 -12948365.94942  21867030.49043  21867033.12342
      2332.845        1817.802
  22508195.998 3 -11727141.329 3  -9082455.95742  22508195.99043  22508198.16842
      3167.748        2468.393
  21480197.575 3 -20637674.304 3 -16031371.86442  21480197.00443  21480200.51542
     -1675.127       -1305.285
  24387450.114 3  -5623518.127 3  -4358620.27541  24387450.15843  24387453.69641
     -3155.597       -2458.900
  23155964.198 3  -9913516.728 3  -7678362.67642  23155963.83643  23155966.64442
      3226.355        2514.041
  24251009.568 3  -5386678.775 3  -4170065.94042  24251009.67743  24251010.81842
      -482.727        -376.147
  21727447.663 3 -17620997.770 3 -13674100.66742  21727447.78443  21727450.18142
     -2051.452       -1598.525
 04  2  2  1 44 45.0000000  0 11G31G13G 8G21G29G26G10G17G28G 3G27
  23859539.115 3  -2881414.703 3  -2211292.67642  23859538.67543  23859541.55342
      1830.348        1426.253
  24892549.362 3  -2803538.964 3  -2125853.36441  24892548.90943  24892552.15241
     -3679.249       -2866.939
  20208466.956 4 -29478671.990 4 -22909825.40942  20208466.62944  20208469.47942
        96.070          74.869
  24082082.963 3  -5811721.068 3  -4494764.66942  24082083.20743  24082083.35542
       622.272         484.895
  21860379.568 3 -16714899.132 3 -12975600.68442  21860379.78443  21860382.04342
      2327.815        1813.893
  22499160.096 3 -11774623.787 3  -9119455.27042  22499160.46243  22499162.43742
      3163.766        2465.280
  21484992.104 3 -20612479.800 3 -16011739.78442  21484991.42943  21484994.79542
     -1684.030       -1312.226
  24396464.043 3  -5576153.091 3  -4321712.49641  24396465.97643  24396468.24641
     -3159.686       -2462.085
  23146760.790 3  -9961879.089 3  -7716047.60342  23146760.09343  23146764.28242
      3222.143        2510.784
  24252400.457 3  -5379366.069 3  -4164367.71642  24252399.20843  24252403.35242
      -491.911        -383.324
  21733310.373 3 -17590187.007 3 -13650092.28042  21733310.70643  21733313.22542
     -2056.318       -1602.314
 04  2  2  1 45  0.0000000  0 11G31G13G 8G21G29G26G10G17G28G 3G27
  23854328.139 3  -2908800.241 3  -2232632.05141  23854327.24743  23854329.25141
      1821.924        1419.684
  24903055.183 3  -2748330.471 3  -2082833.77841  24903054.93743  24903057.64441
     -3680.087       -2867.603
  20208206.172 4 -29480043.433 4 -22910894.06342  20208205.85044  20208208.32342
        87.304          68.034
  24080321.750 3  -5820976.053 3  -4501976.33542  24080320.83443  24080322.89442
       612.117         476.964
  21853743.466 3 -16749772.526 3 -13002774.76042  21853743.89043  21853745.43642
      2322.513        1809.748
  22490137.521 3 -11822038.669 3  -9156401.94142  22490136.56743  22490140.12142
      3159.115        2461.647
  21489813.058 3 -20587145.763 3 -15991998.97842  21489812.49243  21489815.68142
     -1693.179       -1319.347
  24405489.242 3  -5528727.021 3  -4284757.16041  24405487.11343  24405490.64041
     -3163.349       -2464.949
  23137570.728 3 -10010173.362 3  -7753679.48342  23137570.01943  23137572.58042
      3217.552        2507.165
  24253819.825 3  -5371906.737 3  -4158555.25042  24253819.77543  24253822.22242
      -501.811        -391.011
  21739188.500 3 -17559298.582 3 -13626023.38042  21739188.56243  21739191.25542
     -2061.556       -1606.413
 04  2  2  1 45 15.0000000  0 11G31G13G 8G21G29G26G10G17G28G 3G27
  23849142.037 3  -2936055.563 3  -2253869.94941  23849140.66543  23849143.55841
      1812.237        1412.132
  24913565.232 3  -2693101.383 3  -2039798.17441  24913565.74343  24913567.11941
     -3683.881       -2870.554
  20207970.845 4 -29481280.585 4 -22911858.07642  20207970.52044  20207973.03442
        77.799          60.622
  24078589.077 3  -5830079.839 3  -4509070.18342  24078589.16743  24078590.03742
       601.738         468.895
  21847121.867 3 -16784567.960 3 -13029888.08442  21847122.05643  21847124.69042
      2317.025        1805.481
  22481127.916 3 -11869385.708 3  -9193295.73942  22481127.83243  22481129.46742
      3154.192        2457.820
  21494660.463 3 -20561672.400 3 -15972149.60842  21494660.07143  21494662.92942
     -1703.050       -1327.050
  24414525.159 3  -5481240.219 3  -4247754.48541  24414526.49343  24414527.54641
     -3168.272       -2468.777
  23128393.352 3 -10058399.241 3  -7791258.06742  23128392.73643  23128396.68142
      3212.632        2503.333
  24255266.487 3  -5364300.741 3  -4152628.50342  24255266.27543  24255270.62942
      -512.131        -399.062
  21745081.427 3 -17528332.683 3 -13601894.11342  21745080.69043  21745083.93742
     -2067.142       -1610.770
 04  2  2  1 45 30.0000000  0 11G31G13G 8G21G29G26G10G17G28G 3G27
  23843980.480 3  -2963180.385 3  -2275006.16341  23843981.65343  23843980.75741
      1804.357        1406.000
  24924077.231 3  -2637851.930 3  -1996746.69041  24924079.22743  24924081.13641
     -3682.932       -2869.799
  20207761.036 4 -29482383.481 4 -22912717.47542  20207760.65544  20207763.02042
        69.499          54.164
  24076886.191 3  -5839032.286 3  -4516046.10042  24076884.43543  24076886.58842
       592.251         461.491
  21840515.978 3 -16819284.997 3 -13056940.32242  21840516.21543  21840518.36542
      2312.232        1801.746
  22472129.690 3 -11916664.652 3  -9230136.47342  22472130.65143  22472132.86142
      3149.883        2454.475
  21499534.439 3 -20536059.946 3 -15952191.86042  21499533.81443  21499536.94042
     -1711.784       -1333.837
  24423573.381 3  -5433693.125 3  -4210704.85041  24423572.43843  24423577.68941
     -3171.135       -2470.997
  23119230.091 3 -10106556.295 3  -7828783.02542  23119230.28143  23119231.91842
      3208.569        2500.187
  24256741.341 3  -5356548.147 3  -4146587.51842  24256742.89143  24256744.67942
      -521.328        -406.217
  21750988.798 3 -17497289.502 3 -13577704.62842  21750988.33143  21750991.03942
     -2071.799       -1614.380
 04  2  2  1 45 45.0000000  0 11G31G13G 8G21G29G26G10G17G28G 3G27
  23838843.797 3  -2990174.328 3  -2296040.40141  23838841.67943  23838844.20041
      1795.526        1399.111
  24934597.111 3  -2582582.205 3  -1953679.39841  24934596.72643  24934599.89441
     -3684.394       -2870.945
  20207576.649 4 -29483352.131 4 -22913472.26742  20207575.99844  20207578.79242
        60.569          47.194
  24075210.430 3  -5847833.318 3  -4522904.03942  24075211.05243  24075211.49342
       582.392         453.815
  21833924.270 3 -16853923.648 3 -13083931.48042  21833924.24743  21833926.46842
      2307.026        1797.679
  22463145.863 3 -11963875.195 3  -9266923.90942  22463146.25143  22463149.17042
      3145.518        2451.046
  21504434.663 3 -20510308.502 3 -15932125.81042  21504434.30643  21504436.90942
     -1720.914       -1340.964
  24432631.835 3  -5386086.195 3  -4173608.59341  24432633.30643  24432635.04641
     -3175.317       -2474.271
  23110078.445 3 -10154644.331 3  -7866254.20942  23110078.56543  23110079.89442
      3203.880        2496.569
  24258245.053 3  -5348648.978 3  -4140432.33042  24258245.83643  24258247.68042
      -531.270        -413.971
  21756910.779 3 -17466169.101 3 -13553454.96242  21756910.40743  21756913.13342
     -2076.720       -1618.221
 04  2  2  1 46  0.0000000  0 11G31G13G 8G21G29G26G10G17G28G 3G27
  23833731.863 3  -3017037.243 3  -2316972.51041  23833731.07743  23833732.22641
      1786.908        1392.387
  24945116.922 3  -2527292.438 3  -1910596.44941  24945117.73643  24945119.17241
     -3685.984       -2872.190
  20207417.487 4 -29484186.620 4 -22914122.51842  20207417.48144  20207420.06342
        51.631          40.232
  24073565.550 3  -5856482.975 3  -4529644.03542  24073564.44243  24073564.07042
       572.101         445.787
  21827347.863 3 -16888483.665 3 -13110861.35842  21827347.75643  21827350.18942
      2301.903        1793.693
  22454175.979 3 -12011017.217 3  -9303657.95242  22454175.98043  22454178.00042
      3141.095        2447.609
  21509361.530 3 -20484418.352 3 -15911951.67442  21509361.01043  21509364.03742
     -1730.277       -1348.266
  24441702.823 3  -5338419.923 3  -4136466.06441  24441702.75843  24441704.73941
     -3179.405       -2477.449
  23100940.931 3 -10202663.198 3  -7903671.50242  23100941.71143  23100943.15242
      3199.369        2493.031
  24259776.289 3  -5340603.439 3  -4134163.07441  24259775.86343  24259777.94741
      -540.955        -421.525
  21762846.951 3 -17434971.821 3 -13529145.40042  21762847.42943  21762849.62142
     -2081.943       -1622.282
 04  2  2  1 46 15.0000000  0 11G31G13G 8G21G29G26G10G17G28G 3G27
  23828644.503 3  -3043768.724 3  -2337802.24041  23828643.32243  23828646.57641
      1777.728        1385.239
  24955642.490 3  -2471982.920 3  -1867498.11741  24955640.75143  24955643.56041
     -3688.357       -2874.041
  20207284.219 4 -29484887.016 4 -22914668.27942  20207283.81444  20207286.62942
        42.336          32.992
  24071948.947 3  -5864981.085 3  -4536265.92442  24071948.79443  24071949.08042
       561.397         437.455
  21820786.481 3 -16922964.818 3 -13137729.78642  21820786.41243  21820788.50742
      2296.183        1789.244
  22445218.094 3 -12058090.468 3  -9340338.41242  22445218.85943  22445220.56042
      3135.980        2443.625
  21514314.638 3 -20458389.651 3 -15891669.57742  21514313.84643  21514317.17442
     -1739.882       -1355.743
  24450785.136 3  -5290694.411 3  -4099277.37641  24450784.26543  24450786.78241
     -3183.758       -2480.858
  23091816.219 3 -10250612.362 3  -7941034.46742  23091816.10443  23091818.48842
      3194.299        2489.044
  24261335.579 3  -5332411.566 3  -4127779.79041  24261334.98943  24261337.22741
      -550.873        -429.245
  21768798.569 3 -17403697.718 3 -13504775.96742  21768798.74643  21768800.94742
     -2087.570       -1626.693
 04  2  2  1 46 30.0000000  0 11G31G13G 8G21G29G26G10G17G28G 3G27
  23823581.894 3  -3070368.509 3  -2358529.35142  23823582.45243  23823585.57242
      1768.974        1378.420
  24966171.930 3  -2416653.689 3  -1824384.44741  24966171.39343  24966173.50341
     -3689.427       -2874.874
  20207176.579 4 -29485453.144 4 -22915109.41642  20207176.36844  20207179.10642
        33.456          26.076
  24070360.620 3  -5873327.607 3  -4542769.70442  24070359.40743  24070359.68242
       551.644         429.847
  21814239.562 3 -16957366.884 3 -13164536.59042  21814239.90143  21814241.82942
      2290.947        1785.170
  22436273.824 3 -12105094.509 3  -9376964.93642  22436273.19243  22436275.95342
      3131.543        2440.181
  21519293.857 3 -20432222.572 3 -15871279.65742  21519293.26443  21519296.55242
     -1748.852       -1362.732
  24459877.776 3  -5242910.343 3  -4062043.07541  24459875.45643  24459880.45241
     -3187.501       -2483.751
  23082705.773 3 -10298491.560 3  -7978342.90842  23082706.33643  23082707.69642
      3189.905        2485.661
  24262922.418 3  -5324073.409 3  -4121282.52641  24262922.74843  24262925.84841
      -560.479        -436.730
  21774764.046 3 -17372346.943 3 -13480346.79242  21774764.49043  21774766.96242
     -2092.332       -1630.383
 04  2  2  1 46 45.0000000  0 11G31G13G 8G21G29G26G10G17G28G 3G27
  23818546.241 3  -3096836.309 3  -2379153.61342  23818545.61243  23818548.39242
      1759.862        1371.322
  24976704.198 3  -2361304.914 3  -1781255.54141  24976705.23443  24976705.86841
     -3690.972       -2876.082
  20207094.406 4 -29485885.290 4 -22915446.15142  20207093.95444  20207096.75342
        24.304          18.946
  24068799.457 3  -5881522.450 3  -4549155.29642  24068799.09943  24068800.50442
       541.256         421.754
  21807708.027 3 -16991689.771 3 -13191281.69642  21807708.45843  21807710.08742
      2285.351        1780.794
  22427342.032 3 -12152029.288 3  -9413537.49242  22427341.94243  22427344.26642
      3126.582        2436.312
  21524299.739 3 -20405917.324 3 -15850782.07342  21524298.93343  21524302.12842
     -1758.376       -1370.156
  24468981.546 3  -5195068.076 3  -4024763.40441  24468981.10543  24468985.22541
     -3191.690       -2487.031
  23073608.323 3 -10346300.529 3  -8015596.62542  23073606.67543  23073609.18342
      3184.969        2481.783
  24264536.499 3  -5315589.042 3  -4114671.34841  24264536.08043  24264539.81141
      -570.717        -444.703
  21780744.743 3 -17340919.628 3 -13455857.97942  21780744.53643  21780747.23942
     -2097.791       -1634.649
 04  2  2  1 47  0.0000000  0 11G31G13G 8G21G29G26G10G17G28G 3G27
  23813534.556 3  -3123171.877 3  -2399674.81142  23813534.05643  23813537.24542
      1751.084        1364.470
  24987240.271 3  -2305936.796 3  -1738111.55841  24987240.38343  24987241.91341
     -3692.350       -2877.150
  20207037.932 4 -29486183.289 4 -22915678.35642  20207037.46644  20207039.99642
        15.209          11.843
  24067269.362 3  -5889565.637 3  -4555422.71841  24067268.94443  24067270.27941
       530.752         413.554
  21801191.840 3 -17025933.133 3 -13217964.83942  21801192.06543  21801194.07542
      2280.022        1776.633
  22418423.577 3 -12198894.509 3  -9450055.84642  22418424.16443  22418426.58142
      3121.987        2432.744
  21529331.866 3 -20379474.216 3 -15830177.06542  21529331.27843  21529334.36242
     -1767.600       -1377.355
  24478096.372 3  -5147168.130 3  -3987438.77541  24478097.13943  24478101.84541
     -3195.419       -2489.946
  23064523.823 3 -10394038.901 3  -8052795.33442  23064523.65943  23064524.82842
      3180.203        2478.100
  24266178.895 3  -5306958.518 3  -4107946.25341  24266178.69143  24266181.61941
      -580.640        -452.439
  21786739.447 3 -17309415.940 3 -13431309.64542  21786739.20443  21786742.35542
     -2103.002       -1638.717
 04  2  2  1 47 15.0000000  0 11G31G13G 8G21G29G26G10G17G28G 3G27
  23808547.781 3  -3149374.786 3  -2420092.63942  23808548.68243  23808550.87842
      1742.446        1357.763
  24997780.388 3  -2250549.474 3  -1694952.61241  24997779.50243  24997778.76041
     -3693.067       -2877.713
  20207006.626 4 -29486347.250 4 -22915806.11742  20207006.37344  20207008.84742
         6.575           5.120
  24065767.950 3  -5897456.949 3  -4561571.80942  24065767.60543  24065768.75942
       521.004         405.976
  21794690.444 3 -17060096.762 3 -13244585.84642  21794690.96743  21794692.40942
      2275.082        1772.787
  22409518.555 3 -12245689.884 3  -9486519.77642  22409518.65643  22409522.05442
      3117.435        2429.173
  21534389.547 3 -20352893.247 3 -15809464.63242  21534389.15343  21534392.32042
     -1776.606       -1384.371
  24487222.939 3  -5099210.532 3  -3950069.23641  24487223.24243  24487224.96141
     -3199.255       -2492.917
  23055452.699 3 -10441706.410 3  -8089938.84142  23055452.72143  23055455.37142
      3175.628        2474.547
  24267849.293 3  -5298181.766 3  -4101107.24641  24267849.50743  24267852.17641
      -590.140        -459.857
  21792749.193 3 -17277836.040 3 -13406701.93742  21792749.05643  21792751.81642
     -2107.695       -1642.360
 04  2  2  1 47 30.0000000  0 11G31G13G 8G21G29G26G10G17G28G 3G27
  23803587.096 3  -3175444.863 3  -2440406.96742  23803586.55843  23803590.51042
      1732.998        1350.387
  25008322.926 3  -2195143.193 3  -1651778.90241  25008324.51943  25008325.58841
     -3694.872       -2879.126
  20207000.604 4 -29486377.305 4 -22915829.53642  20207000.51244  20207003.03642
        -2.740          -2.124
  24064295.079 3  -5905196.450 3  -4567602.57842  24064294.03743  24064295.16942
       510.473         397.755
  21788205.165 3 -17094180.643 3 -13271144.71542  21788205.00243  21788206.84442
      2269.180        1768.182
  22400627.593 3 -12292415.195 3  -9522929.10842  22400627.72443  22400629.50142
      3112.431        2425.282
  21539474.076 3 -20326174.735 3 -15788645.01442  21539473.43843  21539476.66942
     -1786.082       -1391.743
  24496360.884 3  -5051196.149 3  -3912655.45341  24496360.68243  24496364.05441
     -3203.437       -2496.184
  23046395.145 3 -10489302.717 3  -8127026.84442  23046393.41743  23046397.55842
      3170.198        2470.286
  24269547.311 3  -5289258.997 3  -4094154.44541  24269547.59743  24269550.13541
      -600.164        -467.652
  21798772.995 3 -17246180.160 3 -13382035.01542  21798772.37443  21798775.68442
     -2113.203       -1646.633
 04  2  2  1 47 45.0000000  0 11G31G13G 8G21G29G26G10G17G28G 3G27
  23798651.342 3  -3201381.768 3  -2460617.53742  23798651.85143  23798654.67242
      1724.560        1343.814
  25018871.182 3  -2139718.078 3  -1608590.50441  25018871.07243  25018871.93241
     -3695.696       -2879.786
  20207020.756 4 -29486273.424 4 -22915748.58942  20207020.22844  20207022.81842
       -11.276          -8.786
  24062851.857 3  -5912784.086 3  -4573515.02042  24062851.62243  24062852.55142
       500.826         390.269
  21781734.819 3 -17128184.325 3 -13297641.09942  21781734.71143  21781736.17842
      2264.233        1764.337
  22391749.750 3 -12339070.223 3  -9559283.69442  22391749.16243  22391752.22442
      3108.115        2421.915
  21544584.825 3 -20299318.905 3 -15767718.39842  21544584.30743  21544587.42542
     -1794.974       -1398.691
  24505507.863 3  -5003125.119 3  -3875197.55241  24505507.76143  24505511.45641
     -3206.515       -2498.593
  23037352.044 3 -10536827.655 3  -8164059.23742  23037351.92043  23037354.45342
      3165.824        2466.879
  24271273.951 3  -5280190.262 3  -4087087.90241  24271273.53543  24271275.19741
      -609.408        -474.866
  21804811.338 3 -17214448.443 3 -13357309.00742  21804811.02643  21804814.03442
     -2118.051       -1650.439
 04  2  2  1 48  0.0000000  0 11G31G13G 8G21G29G26G10G17G28G 3G27
  23793742.006 3  -3227185.299 3  -2480724.18442  23793741.47343  23793744.78842
      1716.249        1337.333
  25029421.061 3  -2084274.300 3  -1565387.56341  25029420.48743  25029424.79841
     -3696.269       -2880.219
  20207065.745 4 -29486035.708 4 -22915563.35942  20207065.54944  20207068.18142
       -19.659         -15.308
  24061436.861 3  -5920219.904 3  -4579309.14842  24061437.02043  24061435.74442
       491.371         382.884
  21775278.895 3 -17162107.834 3 -13324075.00242  21775279.01443  21775280.98042
      2259.606        1760.744
  22382885.017 3 -12385654.792 3  -9595583.35142  22382885.51543  22382887.28142
      3103.960        2418.668
  21549721.561 3 -20272326.149 3 -15746685.08842  21549720.87243  21549723.83842
     -1803.433       -1405.270
  24514666.764 3  -4954997.974 3  -3837695.92841  24514666.08643  24514668.88241
     -3209.322       -2500.776
  23028321.640 3 -10584280.919 3  -8201035.79642  23028321.70643  23028324.16942
      3161.910        2463.803
  24273026.691 3  -5270975.596 3  -4079907.65141  24273026.24243  24273029.66241
      -618.536        -481.972
  21810864.576 3 -17182641.011 3 -13332523.99442  21810864.06643  21810866.76242
     -2122.319       -1653.739
 04  2  2  1 48 15.0000000  0 11G31G13G 8G21G29G26G10G17G28G 3G27
  23788856.729 3  -3252854.990 3  -2500726.51842  23788855.92243  23788859.28942
      1707.630        1330.627
  25039975.452 3  -2028811.915 3  -1522170.13541  25039976.23543  25039975.25541
     -3697.011       -2880.797
  20207136.418 4 -29485663.938 4 -22915273.66542  20207136.20344  20207138.86542
       -28.546         -22.231
  24060049.853 3  -5927503.691 3  -4584984.81542  24060049.49643  24060051.29642
       481.069         374.857
  21768838.647 3 -17195950.810 3 -13350446.14442  21768838.63643  21768840.87142
      2254.205        1756.548
  22374033.350 3 -12432168.440 3  -9631827.76342  22374033.46143  22374035.38942
      3099.215        2414.997
  21554883.792 3 -20245196.389 3 -15725545.02642  21554883.39143  21554886.59942
     -1812.536       -1412.352
  24523835.379 3  -4906814.996 3  -3800150.78341  24523834.61643  24523836.02541
     -3213.422       -2503.959
  23019305.655 3 -10631661.984 3  -8237956.10142  23019304.63543  23019307.56242
      3157.039        2460.062
  24274808.288 3  -5261615.003 3  -4072613.69541  24274808.49443  24274809.93441
      -628.077        -489.399
  21816931.307 3 -17150757.982 3 -13307680.08242  21816930.97343  21816933.70542
     -2127.401       -1657.715
 04  2  2  1 48 30.0000000  0 11G31G13G 8G21G29G26G10G17G28G 3G27
  23783996.135 3  -3278390.583 3  -2520624.36142  23783996.03143  23783999.68742
      1697.840        1322.989
  25050533.201 3  -1973331.134 3  -1478938.36841  25050535.26743  25050534.86241
     -3699.098       -2882.418
  20207232.528 4 -29485158.293 4 -22914879.65642  20207232.37544  20207235.19142
       -38.131         -29.719
  24058693.084 3  -5934635.346 3  -4590541.94842  24058693.67343  24058693.25342
       470.597         366.712
  21762413.805 3 -17229713.032 3 -13376754.36642  21762413.91243  21762416.34342
      2247.937        1751.657
  22365195.821 3 -12478610.980 3  -9668016.74542  22365195.95343  22365198.09242
      3093.756        2410.703
  21560072.864 3 -20217929.785 3 -15704298.32942  21560072.32143  21560075.30742
     -1822.344       -1420.013
  24533014.387 3  -4858576.519 3  -3762562.36541  24533014.60543  24533018.14641
     -3217.714       -2507.297
  23010302.834 3 -10678970.700 3  -8274820.01042  23010302.61343  23010303.70342
      3151.487        2455.703
  24276616.926 3  -5252108.620 3  -4065206.13241  24276616.76043  24276619.11641
      -638.735        -497.713
  21823012.928 3 -17118799.513 3 -13282777.38042  21823012.50743  21823015.49442
     -2133.087       -1662.147
 04  2  2  1 48 45.0000000  0 11G31G13G 8G21G29G26G10G17G28G 3G27
  23779163.384 3  -3303791.967 3  -2540417.64642  23779163.20543  23779166.20042
      1688.529        1315.741
  25061094.286 3  -1917832.200 3  -1435692.44441  25061094.16443  25061095.50941
     -3701.079       -2883.952
  20207354.132 4 -29484518.918 4 -22914381.43742  20207353.90144  20207356.65042
       -47.607         -37.101
  24057364.850 3  -5941614.895 3  -4595980.56341  24057364.54243  24057364.85341
       459.676         358.183
  21756004.100 3 -17263394.449 3 -13402999.61942  21756004.43343  21756006.93242
      2242.313        1747.253
  22356371.977 3 -12524982.289 3  -9704150.22842  22356371.35543  22356374.19642
      3088.549        2406.686
  21565287.414 3 -20190526.820 3 -15682945.37942  21565286.59043  21565289.47442
     -1831.869       -1427.430
  24542203.583 3  -4810283.175 3  -3724931.19441  24542202.86543  24542208.25641
     -3221.849       -2510.527
  23001313.802 3 -10726206.809 3  -8311627.34842  23001314.34843  23001316.64542
      3146.037        2451.442
  24278452.123 3  -5242456.515 3  -4057685.01441  24278453.13743  24278456.71041
      -648.819        -505.571
  21829108.273 3 -17086765.847 3 -13257816.08742  21829108.24243  21829111.18942
     -2138.577       -1666.440
 04  2  2  1 49  0.0000000  0 11G31G13G 8G21G29G26G10G17G28G 3G27
  23774354.296 3  -3329058.786 3  -2560106.09042  23774354.76343  23774357.39242
      1679.759        1308.910
  25071659.083 3  -1862315.400 3  -1392432.58441  25071657.95743  25071659.20141
     -3701.744       -2884.469
  20207501.368 4 -29483745.903 4 -22913779.08642  20207500.93544  20207503.77442
       -55.912         -43.555
  24056065.797 3  -5948442.316 3  -4601300.63641  24056064.81443  24056066.40141
       449.917         350.568
  21749610.746 3 -17296994.926 3 -13429181.80942  21749610.76443  21749612.42842
      2237.362        1743.399
  22347560.770 3 -12571282.095 3  -9740228.00342  22347561.23543  22347563.74842
      3084.397        2403.436
  21570527.716 3 -20162987.718 3 -15661486.34742  21570527.35943  21570530.45242
     -1840.513       -1434.162
  24551403.757 3  -4761935.335 3  -3687257.55841  24551403.13543  24551406.29341
     -3225.003       -2512.988
  22992339.170 3 -10773370.000 3  -8348377.87242  22992339.28243  22992341.72242
      3141.562        2447.980
  24280318.321 3  -5232658.844 3  -4050050.47841  24280317.33843  24280321.13641
      -658.278        -512.921
  21835218.766 3 -17054657.313 3 -13232796.45242  21835218.44443  21835221.18442
     -2143.069       -1669.922
 04  2  2  1 49 15.0000000  0 11G31G13G 8G21G29G26G10G17G28G 3G27
  23769572.241 3  -3354190.674 3  -2579689.37342  23769573.09443  23769575.30142
      1671.385        1302.378
  25082225.504 3  -1806780.647 3  -1349158.76441  25082227.31943  25082226.54741
     -3702.802       -2885.299
  20207674.036 4 -29482839.088 4 -22913072.47642  20207673.67944  20207676.29242
       -64.690         -50.401
  24054794.520 3  -5955117.603 3  -4606502.15541  24054793.30843  24054795.41441
       440.351         343.123
  21743232.180 3 -17330513.986 3 -13455300.56342  21743232.30643  21743234.49842
      2232.217        1739.407
  22338764.524 3 -12617509.988 3  -9776249.73942  22338764.60843  22338766.56342
      3079.703        2399.778
  21575794.259 3 -20135312.443 3 -15639921.20642  21575793.71943  21575796.96742
     -1849.217       -1440.942
  24560614.880 3  -4713533.429 3  -3649541.75641  24560611.09443  24560619.53841
     -3228.642       -2515.816
  22983378.643 3 -10820459.818 3  -8385071.21742  22983378.25843  22983380.57642
      3137.065        2444.489
  24282210.488 3  -5222715.503 3  -4042302.44741  24282210.38343  24282214.09241
      -667.574        -520.187
  21841343.217 3 -17022473.695 3 -13207718.30742  21841342.79443  21841345.61742
     -2147.817       -1673.619
 04  2  2  1 49 30.0000000  0 11G31G13G 8G21G29G26G10G17G28G 3G27
  23764816.822 3  -3379187.438 3  -2599167.36142  23764814.43043  23764818.39442
      1662.257        1295.268
  25092797.830 3  -1751228.323 3  -1305871.26641  25092797.90843  25092800.40941
     -3703.723       -2886.012
  20207872.235 4 -29481798.508 4 -22912261.63242  20207871.58344  20207874.31242
       -73.574         -57.325
  24053553.750 3  -5961640.695 3  -4611585.08341  24053554.16943  24053555.00741
       429.873         334.950
  21736869.066 3 -17363951.511 3 -13481355.77542  21736869.22443  21736871.86542
      2226.744        1735.124
  22329981.098 3 -12663665.821 3  -9812215.31942  22329981.39343  22329983.83842
      3075.024        2396.137
  21581086.758 3 -20107501.283 3 -15618250.18242  21581086.24843  21581089.38742
     -1858.312       -1448.026
  24569834.798 3  -4665077.720 3  -3611784.06841  24569833.80343  24569839.14941
     -3232.064       -2518.506
  22974431.061 3 -10867476.045 3  -8421707.22442  22974430.83643  22974434.20442
      3132.236        2440.702
  24284130.613 3  -5212626.581 3  -4034440.95542  24284129.25743  24284132.76742
      -677.167        -527.654
  21847481.727 3 -16990215.333 3 -13182581.92242  21847481.28943  21847484.34742
     -2152.707       -1677.434
 04  2  2  1 49 45.0000000  0 11G31G13G 8G21G29G26G10G17G28G 3G27
  23760084.682 3  -3404048.659 3  -2618539.71342  23760084.12843  23760087.28042
      1652.457        1287.619
  25103371.492 3  -1695658.483 3  -1262570.10641  25103371.91343  25103372.92141
     -3705.075       -2887.077
  20208095.451 4 -29480624.250 4 -22911346.62942  20208095.05044  20208097.77942
       -83.061         -64.724
  24052341.863 3  -5968011.366 3  -4616549.27542  24052341.03043  24052342.11442
       419.190         326.642
  21730521.659 3 -17397307.434 3 -13507347.40242  21730521.67643  21730524.15442
      2220.794        1730.484
  22321211.186 3 -12709749.392 3  -9848124.59542  22321211.39043  22321214.47142
      3069.649        2391.930
  21586404.713 3 -20079554.511 3 -15596473.48842  21586403.71843  21586407.55042
     -1868.006       -1455.584
  24579064.826 3  -4616568.829 3  -3573984.99441  24579064.14543  24579071.67241
     -3235.937       -2521.518
  22965498.764 3 -10914418.458 3  -8458285.70242  22965498.44143  22965501.50142
      3126.707        2436.394
  24286077.765 3  -5202392.289 3  -4026466.19242  24286077.81743  24286079.67042
      -687.450        -535.671
  21853634.498 3 -16957882.310 3 -13157387.36442  21853634.39943  21853637.44042
     -2158.295       -1681.796
 04  2  2  1 50  0.0000000  0 11G31G13G 8G21G29G26G10G17G28G 3G27
  23755379.660 3  -3428774.266 3  -2637806.40642  23755379.52643  23755383.13742
      1643.627        1280.753
  25113949.933 3  -1640071.270 3  -1219255.39641  25113949.49043  25113951.52041
     -3706.388       -2888.086
  20208344.232 4 -29479316.448 4 -22910327.56142  20208343.87544  20208346.73442
       -91.571         -71.351
  24051158.436 3  -5974229.736 3  -4621394.74742  24051157.77443  24051158.58342
       409.440         319.054
  21724189.671 3 -17430581.467 3 -13533275.22042  21724189.86943  21724191.72642
      2215.618        1726.448
  22312456.442 3 -12755760.342 3  -9883977.28442  22312456.21743  22312458.99942
      3065.140        2388.422
  21591748.490 3 -20051472.386 3 -15574591.32342  21591747.92643  21591750.91942
     -1876.627       -1462.289
  24588307.311 3  -4568007.002 3  -3536144.67241  24588309.02543  24588312.87341
     -3238.832       -2523.758
  22956579.929 3 -10961286.758 3  -8494806.45042  22956579.20943  22956580.95242
      3122.165        2432.879
  24288052.493 3  -5192012.772 3  -4018378.27641  24288051.94443  24288055.53041
      -696.772        -542.934
  21859801.350 3 -16925474.911 3 -13132134.84542  21859801.25343  21859803.83342
     -2162.825       -1685.308
 04  2  2  1 50 15.0000000  0 11G31G13G 8G21G29G26G10G17G28G 3G27
  23750701.957 3  -3453363.873 3  -2656967.14142  23750701.98843  23750702.73842
      1634.628        1273.744
  25124531.326 3  -1584466.903 3  -1175927.32741  25124530.68043  25124533.50241
     -3707.635       -2889.062
  20208618.515 4 -29477875.192 4 -22909204.50542  20208618.13044  20208621.12942
      -100.584         -78.380
  24050003.804 3  -5980295.755 3  -4626121.51142  24050004.07943  24050003.69742
       399.238         311.096
  21717873.965 3 -17463773.370 3 -13559139.03742  21717873.97343  21717875.73642
      2209.879        1721.988
  22303713.927 3 -12801698.600 3  -9919773.32842  22303714.72643  22303715.48142
      3060.158        2384.546
  21597117.583 3 -20023255.076 3 -15552603.82242  21597117.07843  21597120.66242
     -1885.830       -1469.482
  24597558.174 3  -4519392.656 3  -3498263.41841  24597557.45343  24597561.65641
     -3242.877       -2526.912
  22947675.495 3 -11008080.677 3  -8531269.22542  22947675.39243  22947677.26442
      3117.200        2428.961
  24290055.757 3  -5181488.089 3  -4010177.25042  24290055.26543  24290058.58542
      -706.462        -550.485
  21865982.409 3 -16892993.223 3 -13106824.44642  21865982.43043  21865985.10042
     -2168.029       -1689.380
 04  2  2  1 50 30.0000000  0 11G31G13G 8G21G29G26G10G17G28G 3G27
  23746048.136 3  -3477817.124 3  -2676021.62542  23746047.59743  23746050.58142
      1625.765        1266.827
  25135115.503 3  -1528845.570 3  -1132586.03241  25135116.84543  25135117.60441
     -3708.408       -2889.656
  20208918.255 4 -29476300.422 4 -22907977.41142  20208917.89444  20208920.62942
      -109.173         -85.069
  24048878.851 3  -5986209.305 3  -4630729.47842  24048877.91943  24048879.79442
       389.572         303.566
  21711573.299 3 -17496883.033 3 -13584938.77842  21711573.22243  21711574.99042
      2204.800        1718.045
  22294986.160 3 -12847563.794 3  -9955512.43742  22294986.39143  22294988.94942
      3055.516        2380.943
  21602512.887 3 -19994902.740 3 -15530511.10842  21602512.83043  21602516.09542
     -1894.388       -1476.136
  24606819.852 3  -4470726.293 3  -3460341.62441  24606818.42143  24606824.47041
     -3246.192       -2529.506
  22938785.014 3 -11054799.790 3  -8567673.73242  22938784.55943  22938787.10442
      3112.451        2425.268
  24292086.930 3  -5170818.210 3  -4001863.08442  24292086.61143  24292088.02342
      -716.021        -557.939
  21872177.783 3 -16860437.455 3 -13081456.31442  21872177.19843  21872180.15642
     -2172.654       -1692.994
 04  2  2  1 50 45.0000000  0 11G31G13G 8G21G29G26G10G17G28G 3G27
  23741420.995 3  -3502133.863 3  -2694969.72942  23741420.97043  23741422.39742
      1615.870        1259.117
  25145702.495 3  -1473207.328 3  -1089231.56941  25145701.38743  25145707.69241
     -3710.153       -2891.022
  20209243.301 4 -29474592.126 4 -22906646.27042  20209242.86844  20209245.65242
      -118.846         -92.609
  24047782.072 3  -5991970.407 3  -4635218.64241  24047782.31943  24047782.88641
       378.793         295.163
  21705288.255 3 -17529910.137 3 -13610674.18442  21705288.66843  21705289.96842
      2198.550        1713.155
  22286272.586 3 -12893355.662 3  -9991194.42342  22286273.22243  22286274.78342
      3049.841        2376.525
  21607933.992 3 -19966415.716 3 -15508313.44242  21607933.44043  21607937.29742
     -1904.123       -1483.737
  24616090.554 3  -4422008.148 3  -3422379.47441  24616089.73143  24616094.61641
     -3249.986       -2532.454
  22929908.200 3 -11101443.915 3  -8604019.78442  22929907.69543  22929911.19542
      3106.755        2420.856
  24294144.002 3  -5160003.236 3  -3993435.82941  24294143.27943  24294146.69941
      -726.164        -565.841
  21878386.612 3 -16827807.702 3 -13056030.54242  21878386.29543  21878389.52042
     -2178.314       -1697.386
 04  2  2  1 51  0.0000000  0 11G31G13G 8G21G29G26G10G17G28G 3G27
  23736818.811 3  -3526313.773 3  -2713811.21142  23736818.34643  23736821.11042
      1607.507        1252.592
  25156293.124 3  -1417552.492 3  -1045864.18941  25156293.15643  25156298.12141
     -3710.530       -2891.316
  20209593.839 4 -29472750.444 4 -22905211.19042  20209593.50844  20209596.10042
      -127.059         -99.005
  24046713.785 3  -5997578.729 3  -4639588.76241  24046714.21143  24046715.55741
       369.126         287.635
  21699019.384 3 -17562854.525 3 -13636345.13342  21699019.64543  21699021.28642
      2193.716        1709.399
  22277572.425 3 -12939073.974 3 -10026819.08242  22277573.11443  22277573.62442
      3045.637        2373.224
  21613380.544 3 -19937794.264 3 -15486011.02542  21613379.93343  21613383.41142
     -1912.341       -1490.135
  24625369.903 3  -4373238.623 3  -3384377.26941  24625370.13343  24625373.03741
     -3252.680       -2534.553
  22921046.711 3 -11148012.678 3  -8640307.11742  22921046.86543  22921048.43442
      3102.421        2417.477
  24296229.847 3  -5149043.222 3  -3984895.54541  24296229.47743  24296230.46841
      -735.558        -573.157
  21884610.187 3 -16795104.186 3 -13030547.28442  21884609.81243  21884612.20342
     -2182.601       -1700.728
 04  2  2  1 51 15.0000000  0 11G31G13G 8G21G29G26G10G17G28G 3G27
  23732244.617 3  -3550356.637 3  -2732545.88942  23732244.02643  23732245.45642
      1598.205        1245.356
  25166887.019 3  -1361881.231 3  -1002483.99741  25166887.33043  25166892.01341
     -3711.893       -2892.379
  20209969.712 4 -29470775.433 4 -22903672.22442  20209969.32844  20209972.22242
      -136.239        -106.154
  24045676.382 3  -6003034.657 3  -4643840.14441  24045676.43943  24045677.01941
       358.373         279.252
  21692765.722 3 -17595716.097 3 -13661951.55242  21692765.68243  21692768.08442
      2187.875        1704.841
  22268885.773 3 -12984718.599 3 -10062386.33042  22268886.04643  22268888.31542
      3040.471        2369.186
  21618852.909 3 -19909038.616 3 -15463604.04142  21618852.36243  21618855.15942
     -1921.576       -1497.334
  24634661.044 3  -4324418.323 3  -3346335.49441  24634660.04343  24634664.31041
     -3256.208       -2537.303
  22912199.061 3 -11194505.825 3  -8676535.53042  22912198.46443  22912202.02242
      3096.843        2413.142
  24298342.949 3  -5137938.290 3  -3976242.34241  24298342.95043  24298345.50741
      -745.155        -580.647
  21890847.177 3 -16762327.083 3 -13005006.69342  21890847.22843  21890850.17542
     -2187.725       -1704.718
 04  2  2  1 51 30.0000000  0 11G31G13G 8G21G29G26G10G17G28G 3G27
  23727694.947 3  -3574262.029 3  -2751173.44942  23727694.52543  23727697.59542
      1589.032        1238.200
  25177483.958 3  -1306193.497 3   -959090.95041  25177484.13643  25177487.04841
     -3713.265       -2893.458
  20210370.873 4 -29468667.010 4 -22902029.29742  20210370.58044  20210372.98042
      -145.171        -113.120
  24044667.202 3  -6008338.019 3  -4647972.62041  24044666.17843  24044668.50141
       348.259         271.372
  21686528.206 3 -17628494.532 3 -13687493.19042  21686528.57243  21686530.53642
      2182.200        1700.411
  22260213.958 3 -13030289.071 3 -10097895.78742  22260215.33343  22260216.31542
      3035.367        2365.214
  21624350.348 3 -19880148.888 3 -15441092.57942  21624349.66743  21624352.73342
     -1930.606       -1504.367
  24643961.449 3  -4275547.449 3  -3308254.29641  24643962.00443  24643962.94941
     -3259.805       -2540.116
  22903366.386 3 -11240922.872 3  -8712704.65142  22903365.73943  22903369.10242
      3091.764        2409.158
  24300482.917 3  -5126688.446 3  -3967476.23141  24300483.49343  24300485.83941
      -755.286        -588.547
  21897098.631 3 -16729476.463 3 -12979408.81042  21897098.68543  21897101.14642
     -2192.640       -1708.536
 04  2  2  1 51 45.0000000  0 11G31G13G 8G21G29G26G10G17G28G 3G27
  23723171.908 3  -3598029.795 3  -2769693.77442  23723171.04743  23723173.82342
      1579.952        1231.139
  25188083.604 3  -1250489.711 3   -915685.41341  25188083.44443  25188086.94541
     -3713.957       -2893.978
  20210797.628 4 -29466425.336 4 -22900282.53742  20210797.33244  20210799.87742
      -153.583        -119.674
  24043687.786 3  -6013488.872 3  -4651986.27941  24043688.01243  24043686.81441
       338.285         263.593
  21680306.829 3 -17661189.668 3 -13712969.92042  21680306.97543  21680308.42942
      2177.189        1696.516
  22251557.253 3 -13075785.253 3 -10133347.35542  22251557.81743  22251559.65642
      3030.946        2361.784
  21629873.102 3 -19851125.312 3 -15418476.81742  21629872.46943  21629876.03242
     -1939.023       -1510.918
  24653269.104 3  -4226626.552 3  -3270134.14941  24653269.47943  24653276.37241
     -3262.684       -2542.341
  22894548.276 3 -11287263.767 3  -8748814.41842  22894547.50643  22894550.37542
      3087.058        2405.478
  24302651.516 3  -5115293.885 3  -3958597.37741  24302652.18143  24302655.10741
      -764.137        -595.442
  21903364.025 3 -16696552.479 3 -12953753.75942  21903363.80443  21903366.26842
     -2197.132       -1712.042
 04  2  2  1 52  0.0000000  0 11G31G13G 8G21G29G26G10G17G28G 3G27
  23718675.113 3  -3621659.763 3  -2788106.74642  23718674.52243  23718678.16142
      1570.876        1224.060
  25198687.259 3  -1194769.920 3   -872267.41841  25198688.02943  25198690.22241
     -3714.828       -2894.668
  20211249.664 4 -29464050.442 4 -22898431.96742  20211249.39844  20211251.87442
      -162.616        -126.703
  24042736.621 3  -6018487.215 3  -4655881.08642  24042735.23243  24042737.13942
       328.331         255.841
  21674100.839 3 -17693801.339 3 -13738381.61342  21674101.20643  21674102.92942
      2171.546        1692.116
  22242914.034 3 -13121206.877 3 -10168740.83042  22242913.74843  22242915.58142
      3025.934        2357.871
  21635421.337 3 -19821968.096 3 -15395756.92142  21635420.74043  21635424.30442
     -1948.065       -1517.966
  24662587.370 3  -4177656.044 3  -3231975.32541  24662587.42343  24662592.59441
     -3266.879       -2545.632
  22885744.352 3 -11333528.248 3  -8784864.64442  22885744.39543  22885746.51542
      3082.026        2401.606
  24304846.505 3  -5103754.728 3  -3949605.81641  24304846.18043  24304848.88541
      -773.848        -603.000
  21909643.152 3 -16663555.294 3 -12928041.67142  21909643.16743  21909645.10642
     -2202.048       -1715.884
 04  2  2  1 52 15.0000000  0 11G31G13G 8G21G29G26G10G17G28G 3G27
  23714204.904 3  -3645151.409 3  -2806411.91042  23714204.83143  23714208.13242
      1560.793        1216.198
  25209293.691 3  -1139034.253 3   -828837.04741  25209294.83943  25209297.01641
     -3716.996       -2896.364
  20211727.105 4 -29461542.295 4 -22896477.56742  20211726.30344  20211728.97442
      -172.255        -134.212
  24041814.154 3  -6023332.787 3  -4659656.84442  24041814.25843  24041815.32242
       317.442         247.344
  21667911.468 3 -17726329.210 3 -13763728.00442  21667911.30943  21667912.85842
      2165.094        1687.097
  22234284.206 3 -13166553.705 3 -10204076.01342  22234284.64643  22234287.28942
      3020.054        2353.293
  21640995.495 3 -19792677.397 3 -15372933.01542  21640994.69443  21640998.35242
     -1957.744       -1525.504
  24671916.440 3  -4128636.242 3  -3193778.12041  24671918.67743  24671920.52541
     -3269.774       -2547.860
  22876954.583 3 -11379715.809 3  -8820854.93542  22876954.77843  22876957.99742
      3075.891        2396.783
  24307070.303 3  -5092070.961 3  -3940501.59941  24307070.40643  24307073.04241
      -784.449        -611.267
  21915936.193 3 -16630485.123 3 -12902272.70142  21915936.06243  21915939.00142
     -2207.795       -1720.343
 04  2  2  1 52 30.0000000  0 11G31G13G 8G21G29G26G10G17G28G 3G27
  23709761.309 3  -3668504.551 3  -2824609.14942  23709761.01743  23709764.34742
      1551.470        1208.935
  25219902.975 3  -1083283.093 3   -785394.57741  25219902.04643  25219905.39141
     -3718.208       -2897.327
  20212229.313 4 -29458901.009 4 -22894419.42342  20212228.88844  20212231.90742
      -181.121        -141.132
  24040921.528 3  -6028025.609 3  -4663313.58142  24040920.64843  24040923.02442
       307.151         239.344
  21661737.093 3 -17758773.205 3 -13789009.04342  21661736.60843  21661739.44442
      2159.537        1682.764
  22225669.981 3 -13211825.530 3 -10239352.75742  22225670.38043  22225671.66142
      3015.109        2349.435
  21646595.122 3 -19763253.597 3 -15350005.39542  21646593.77543  21646597.43142
     -1966.657       -1532.470
  24681254.415 3  -4079567.743 3  -3155542.91241  24681253.90343  24681259.17441
     -3273.720       -2550.949
  22868180.333 3 -11425826.173 3  -8856785.08242  22868180.98943  22868182.44842
      3070.713        2392.751
  24309321.577 3  -5080242.803 3  -3931284.85441  24309321.36243  24309325.08141
      -794.063        -618.743
  21922243.045 3 -16597342.130 3 -12876446.99642  21922242.91143  21922245.61142
     -2212.615       -1724.125
 04  2  2  1 52 45.0000000  0 11G31G13G 8G21G29G26G10G17G28G 3G27
  23705344.817 3  -3691719.046 3  -2842698.35242  23705343.85643  23705346.25942
      1543.084        1202.405
  25230514.965 3  -1027516.357 3   -741939.99941  25230515.64743  25230517.34841
     -3717.954       -2897.116
  20212757.398 4 -29456126.748 4 -22892257.66142  20212756.80944  20212759.57042
      -189.193        -147.419
  24040056.483 3  -6032565.729 3  -4666851.33242  24040056.15243  24040058.52342
       297.612         231.908
  21655579.351 3 -17791133.114 3 -13814224.55342  21655579.28743  21655581.58842
      2154.728        1679.009
  22217069.539 3 -13257022.001 3 -10274570.79142  22217069.51343  22217070.39142
      3010.827        2346.105
  21652219.398 3 -19733696.911 3 -15326974.22642  21652218.46343  21652222.02142
     -1974.721       -1538.745
  24690601.671 3  -4030450.764 3  -3117269.96141  24690601.15043  24690605.11241
     -3276.303       -2552.986
  22859420.727 3 -11471859.125 3  -8892654.89742  22859420.28643  22859421.69642
      3066.481        2389.458
  24311600.579 3  -5068270.296 3  -3921955.63341  24311599.11443  24311602.15741
      -803.020        -625.737
  21928563.345 3 -16564126.480 3 -12850564.67342  21928563.44943  21928565.90042
     -2216.740       -1727.323
 04  2  2  1 53  0.0000000  0 11G31G13G 8G21G29G26G10G17G28G 3G27
  23700953.057 3  -3714794.606 3  -2860679.30142  23700952.38343  23700954.91942
      1533.575        1194.995
  25241129.478 3   -971734.376 3   -698473.55441  25241129.86543  25241131.42941
     -3718.815       -2897.782
  20213310.375 4 -29453219.502 4 -22889992.27342  20213309.93644  20213312.84142
      -198.149        -154.398
  24039222.230 3  -6036953.019 3  -4670269.96842  24039221.51943  24039223.07742
       287.388         223.941
  21649437.787 3 -17823408.647 3 -13839374.31742  21649437.73343  21649439.99242
      2148.985        1674.534
  22208482.491 3 -13302142.928 3 -10309729.96742  22208483.38743  22208484.97742
      3005.692        2342.093
  21657868.831 3 -19704007.568 3 -15303839.68842  21657867.95043  21657871.97642
     -1983.606       -1545.659
  24699956.703 3  -3981285.783 3  -3078959.59441  24699954.63343  24699962.75741
     -3279.293       -2555.293
  22850675.852 3 -11517814.370 3  -8928464.18242  22850675.37343  22850678.16742
      3061.262        2385.391
  24313905.681 3  -5056153.544 3  -3912514.01341  24313905.32643  24313907.44941
      -812.943        -633.472
  21934897.894 3 -16530838.435 3 -12824625.94942  21934897.84043  21934900.13242
     -2221.481       -1731.011
 04  2  2  1 53 15.0000000  0 11G31G13G 8G21G29G26G10G17G28G 3G27
  23696588.338 3  -3737730.836 3  -2878551.67942  23696587.89843  23696590.39642
      1524.753        1188.120
  25251749.681 3   -915937.198 3   -654995.25541  25251750.09443  25251750.53641
     -3719.885       -2898.593
  20213888.921 4 -29450179.191 4 -22887623.20142  20213888.62344  20213891.30242
      -206.596        -160.984
  24038416.827 3  -6041187.412 3  -4673569.50742  24038416.43243  24038418.07542
       277.477         216.215
  21643311.994 3 -17855599.690 3 -13864458.24742  21643312.07943  21643313.47042
      2143.654        1670.383
  22199910.872 3 -13347188.029 3 -10344830.04942  22199911.48743  22199914.74942
      3000.745        2338.231
  21663543.603 3 -19674185.681 3 -15280601.87142  21663543.28043  21663545.99942
     -1992.194       -1552.364
  24709322.152 3  -3932073.139 3  -3040612.08041  24709323.20543  24709324.23141
     -3282.065       -2557.463
  22841945.602 3 -11563691.571 3  -8964212.63742  22841945.78043  22841949.38342
      3056.272        2381.499
  24316238.953 3  -5043892.575 3  -3902960.00541  24316239.12143  24316242.14641
      -821.953        -640.479
  21941246.663 3 -16497477.977 3 -12798630.78442  21941246.35143  21941248.82342
     -2226.083       -1734.607
 04  2  2  1 53 30.0000000  0 11G31G13G 8G21G29G26G10G17G28G 3G27
  23692250.164 3  -3760527.528 3  -2896315.31542  23692249.81543  23692252.76442
      1514.514        1180.128
  25262369.798 3   -860124.941 3   -611505.19941  25262368.00643  25262370.66241
     -3721.696       -2900.014
  20214492.659 4 -29447005.983 4 -22885150.56942  20214492.53044  20214495.01542
      -216.537        -168.741
  24037640.189 3  -6045269.071 3  -4676750.01942  24037639.84543  24037640.65542
       266.525         207.672
  21637202.404 3 -17887705.971 3 -13889476.13142  21637202.45943  21637204.39842
      2137.120        1665.281
  22191353.595 3 -13392157.081 3 -10379870.86242  22191353.53443  22191356.28242
      2994.996        2333.795
  21669243.862 3 -19644231.521 3 -15257260.97942  21669243.54843  21669246.69942
     -2001.993       -1560.006
  24718695.398 3  -3882813.292 3  -3002227.79441  24718696.88643  24718698.32141
     -3286.380       -2560.824
  22833230.353 3 -11609490.426 3  -8999900.03942  22833229.71643  22833233.14642
      3050.154        2376.725
  24318600.118 3  -5031487.516 3  -3893293.71741  24318598.90343  24318600.97941
      -832.432        -648.649
  21947608.128 3 -16464045.165 3 -12772579.24442  21947607.74943  21947611.46742
     -2231.825       -1739.112
 04  2  2  1 53 45.0000000  0 11G31G13G 8G21G29G26G10G17G28G 3G27
  23687936.981 3  -3783184.591 3  -2913970.14742  23687937.66043  23687940.60242
      1505.801        1173.358
  25272993.218 3   -804298.074 3   -568003.76941  25272992.88543  25272996.06341
     -3722.159       -2900.377
  20215122.063 4 -29443700.029 4 -22882574.49942  20215121.60044  20215124.32942
      -224.790        -175.156
  24036892.216 3  -6049198.059 3  -4679811.55141  24036891.59643  24036893.28841
       256.756         200.064
  21631108.735 3 -17919727.530 3 -13914427.99542  21631108.80643  21631110.92642
      2131.882        1661.215
  22182810.182 3 -13437049.949 3 -10414852.31642  22182811.38943  22182813.43542
      2990.365        2330.189
  21674968.941 3 -19614145.517 3 -15233817.35442  21674968.43243  21674971.72542
     -2010.076       -1566.279
  24728078.438 3  -3833506.724 3  -2963807.06041  24728078.36343  24728083.58241
     -3288.847       -2562.729
  22824529.803 3 -11655210.794 3  -9035526.28442  22824529.41843  22824531.91542
      3045.402        2373.049
  24320986.980 3  -5018938.716 3  -3883515.43341  24320986.55543  24320989.55841
      -841.472        -655.700
  21953983.917 3 -16430540.564 3 -12746471.76442  21953983.88443  21953987.14042
     -2236.076       -1742.402
 04  2  2  1 54  0.0000000  0 11G31G13G 8G21G29G26G10G17G28G 3G27
  23683653.018 3  -3805701.577 3  -2931515.84642  23683653.42943  23683654.62542
      1496.673        1166.249
  25283619.320 3   -748456.474 3   -524490.85141  25283617.38643  25283621.97941
     -3723.203       -2901.201
  20215776.360 4 -29440261.228 4 -22879894.91242  20215776.06544  20215778.69942
      -233.345        -181.833
  24036173.268 3  -6052974.111 3  -4682753.91641  24036173.47643  24036175.08341
       247.022         192.495
  21625031.452 3 -17951663.890 3 -13939313.47242  21625031.34843  21625033.40942
      2126.495        1656.993
  22174282.511 3 -13481866.227 3 -10449774.08342  22174283.16543  22174285.27642
      2985.464        2326.331
  21680719.115 3 -19583927.668 3 -15210270.98842  21680718.65943  21680721.87442
     -2018.801       -1573.100
  24737469.785 3  -3784153.780 3  -2925350.21641  24737469.10343  24737475.77941
     -3291.500       -2564.783
  22815844.660 3 -11700852.197 3  -9071091.00542  22815844.35043  22815846.91142
      3040.521        2369.242
  24323401.406 3  -5006246.028 3  -3873625.02441  24323401.51843  24323404.19341
      -850.984        -663.093
  21960373.507 3 -16396963.944 3 -12720308.16542  21960373.23243  21960376.39542
     -2240.862       -1746.128
 04  2  2  1 54 15.0000000  0 11G31G13G 8G21G29G26G10G17G28G 3G27
  23679394.919 3  -3828078.204 3  -2948952.18542  23679394.42143  23679396.97842
      1487.116        1158.785
  25294249.125 3   -692600.418 3   -480966.66441  25294248.27743  25294248.88041
     -3724.542       -2902.246
  20216455.976 4 -29436689.684 4 -22877111.89242  20216455.63744  20216457.99342
      -242.611        -189.048
  24035483.178 3  -6056597.255 3  -4685577.14341  24035483.56143  24035485.24841
       236.437         184.243
  21618970.264 3 -17983514.812 3 -13964132.37042  21618970.16843  21618972.84242
      2120.531        1652.362
  22165768.854 3 -13526605.705 3 -10484636.02742  22165768.81643  22165771.04442
      2980.012        2322.094
  21686494.429 3 -19553578.263 3 -15186622.10942  21686493.99143  21686497.42642
     -2027.755       -1580.081
  24746869.398 3  -3734754.907 3  -2886857.57841  24746868.10343  24746875.98541
     -3294.621       -2567.240
  22807174.332 3 -11746414.394 3  -9106594.00142  22807173.90043  22807177.63642
      3034.804        2364.801
  24325845.072 3  -4993409.465 3  -3863622.51341  24325845.06343  24325848.46341
      -860.649        -670.637
  21966776.436 3 -16363315.593 3 -12694088.67742  21966776.46943  21966779.12642
     -2245.649       -1749.849
 04  2  2  1 54 30.0000000  0 11G31G13G 8G21G29G26G10G17G28G 3G27
  23675164.286 3  -3850314.347 3  -2966279.05542  23675163.76743  23675166.41142
      1477.708        1151.454
  25304879.201 3   -636730.052 3   -437431.30841  25304879.24543  25304882.26141
     -3724.729       -2902.395
  20217160.952 4 -29432985.459 4 -22874225.48042  20217160.53644  20217163.09742
      -251.183        -195.726
  24034823.619 3  -6060067.646 3  -4688281.33842  24034823.54443  24034825.49442
       226.276         176.323
  21612925.064 3 -18015280.300 3 -13988884.69242  21612925.25443  21612928.26742
      2115.043        1648.071
  22157269.486 3 -13571268.125 3 -10519437.91742  22157269.52043  22157272.86742
      2975.211        2318.339
  21692294.932 3 -19523097.664 3 -15162871.00742  21692294.12143  21692297.79142
     -2036.248       -1586.686
  24756279.733 3  -3685310.488 3  -2848329.47441  24756279.21943  24756281.26141
     -3298.301       -2570.086
  22798519.175 3 -11791897.082 3  -9142035.04542  22798519.17243  22798521.80442
      3029.632        2360.738
  24328314.932 3  -4980429.344 3  -3853508.14041  24328314.81343  24328317.36341
      -870.212        -678.095
  21973193.249 3 -16329595.745 3 -12667813.47342  21973193.11143  21973195.55042
     -2250.387       -1753.563
 04  2  2  1 54 45.0000000  0 11G31G13G 8G21G29G26G10G17G28G 3G27
  23670959.100 3  -3872409.725 3  -2983496.21442  23670958.56443  23670961.90342
      1468.617        1144.372
  25315514.236 3   -580845.619 3   -393885.01941  25315514.01843  25315516.74141
     -3725.761       -2903.198
  20217890.643 4 -29429148.727 4 -22871235.82142  20217890.45144  20217893.17542
      -259.791        -202.426
  24034192.437 3  -6063385.147 3  -4690866.40742  24034191.61443  24034193.29542
       216.568         168.753
  21606897.058 3 -18046960.163 3 -14013570.30142  21606896.96743  21606899.01942
      2109.565        1643.823
  22148784.932 3 -13615853.282 3 -10554179.58642  22148785.95843  22148788.66442
      2970.175        2314.421
  21698119.917 3 -19492486.042 3 -15139017.81042  21698119.25743  21698123.01642
     -2044.656       -1593.227
  24765696.278 3  -3635820.868 3  -2809766.13341  24765694.49143  24765701.12641
     -3300.364       -2571.705
  22789879.331 3 -11837300.038 3  -9177413.95742  22789880.07743  22789882.52642
      3024.696        2356.909
  24330812.559 3  -4967305.709 3  -3843281.91541  24330812.29743  24330815.76341
      -879.579        -685.383
  21979623.590 3 -16295804.511 3 -12641482.65042  21979623.25543  21979626.47742
     -2254.687       -1756.899
 04  2  2  1 55  0.0000000  0 11G31G13G 8G21G29G26G10G17G28G 3G27
  23666781.134 3  -3894364.001 3  -3000603.42242  23666780.94043  23666783.29442
      1458.794        1136.730
  25326152.075 3   -524947.158 3   -350327.80341  25326152.13143  25326154.85341
     -3726.679       -2903.918
  20218645.983 4 -29425179.296 4 -22868142.75442  20218645.90444  20218648.62142
      -269.043        -209.639
  24033590.681 3  -6066549.723 3  -4693332.31242  24033589.75743  24033590.60342
       205.925         160.457
  21600885.130 3 -18078553.902 3 -14038188.79842  21600885.06443  21600886.98442
      2103.369        1638.995
  22140316.608 3 -13660360.764 3 -10588860.74642  22140316.69443  22140318.28242
      2964.555        2310.058
  21703970.378 3 -19461743.478 3 -15115062.57442  21703969.51943  21703973.12142
     -2053.889       -1600.430
  24775123.474 3  -3586286.563 3  -2771167.98541  24775123.74243  24775128.59141
     -3304.600       -2575.001
  22781255.729 3 -11882622.890 3  -9212730.45542  22781255.26843  22781257.43042
      3018.841        2352.358
  24333336.926 3  -4954038.557 3  -3832943.86941  24333337.03643  24333340.30741
      -889.283        -692.947
  21986067.744 3 -16261941.975 3 -12615096.26142  21986068.09843  21986069.82642
     -2259.945       -1760.996
 04  2  2  1 55 15.0000000  0 11G31G13G 8G21G29G26G10G17G28G 3G27
  23662631.474 3  -3916176.951 3  -3017600.52842  23662630.21243  23662633.26342
      1449.548        1129.519
  25336791.195 3   -469034.999 3   -306759.88941  25336792.29643  25336795.23641
     -3727.208       -2904.304
  20219426.768 4 -29421077.302 4 -22864946.39442  20219426.53544  20219429.25842
      -277.620        -216.324
  24033016.383 3  -6069561.424 3  -4695679.08942  24033016.12543  24033019.41142
       195.979         152.708
  21594889.420 3 -18110061.613 3 -14062740.26342  21594889.26543  21594891.57242
      2097.952        1634.776
  22131861.130 3 -13704790.512 3 -10623481.32242  22131860.99543  22131863.56742
      2959.778        2306.331
  21709845.369 3 -19430870.483 3 -15091005.70442  21709844.84543  21709847.87642
     -2062.266       -1606.951
  24784557.247 3  -3536707.957 3  -2732535.35541  24784555.94343  24784561.45941
     -3306.452       -2576.449
  22772645.965 3 -11927865.504 3  -9247984.42642  22772644.89043  22772647.85442
      3013.774        2348.408
  24335889.360 3  -4940628.160 3  -3822494.22041  24335888.88843  24335892.41641
      -898.369        -700.031
  21992524.436 3 -16228008.375 3 -12588654.49342  21992524.57543  21992527.01342
     -2264.208       -1764.310
 04  2  2  1 55 30.0000000  0 11G31G13G 8G21G29G26G10G17G28G 3G27
  23658506.244 3  -3937848.345 3  -3034487.32642  23658505.94643  23658509.96442
      1440.013        1122.088
  25347434.372 3   -413109.280 3   -263181.41641  25347433.67943  25347434.75841
     -3729.049       -2905.757
  20220232.566 4 -29416842.999 4 -22861646.93442  20220232.23144  20220234.93842
      -286.883        -223.544
  24032473.138 3  -6072420.216 3  -4697906.73042  24032473.29943  24032474.57742
       185.538         144.580
  21588909.473 3 -18141483.044 3 -14087224.49842  21588909.95143  21588912.26842
      2091.712        1629.905
  22123421.719 3 -13749142.276 3 -10658041.14342  22123421.68443  22123423.30342
      2953.946        2301.780
  21715744.972 3 -19399867.264 3 -15066847.36042  21715744.47043  21715747.83542
     -2071.406       -1614.092
  24794000.522 3  -3487085.369 3  -2693868.45041  24794002.05043  24794004.85541
     -3309.274       -2578.651
  22764051.912 3 -11973027.402 3  -9283175.49642  22764051.39143  22764053.81042
      3007.916        2343.819
  24338466.544 3  -4927074.597 3  -3811933.01241  24338467.39743  24338470.40241
      -908.578        -707.978
  21998995.247 3 -16194003.900 3 -12562157.51042  21998995.36443  21998998.24142
     -2269.504       -1768.454
 04  2  2  1 55 45.0000000  0 11G31G13G 8G21G29G26G10G17G28G 3G27
  23654409.583 3  -3959377.955 3  -3051263.63842  23654408.55043  23654411.84542
      1429.978        1114.256
  25358079.014 3   -357170.033 3   -219592.42041  25358078.86943  25358080.46441
     -3730.067       -2906.554
  20221063.570 4 -29412476.327 4 -22858244.33442  20221063.17844  20221066.13042
      -295.944        -230.614
  24031958.785 3  -6075126.104 3  -4700015.21142  24031958.34843  24031960.27342
       174.906         136.292
  21582946.824 3 -18172817.965 3 -14111641.31442  21582946.82543  21582949.52042
      2085.710        1625.220
  22114997.298 3 -13793415.653 3 -10692539.88042  22114996.71243  22114999.45742
      2948.650        2297.629
  21721669.848 3 -19368733.931 3 -15042587.63042  21721669.39943  21721672.10442
     -2080.255       -1620.987
  24803451.420 3  -3437419.355 3  -2655167.69541  24803450.55943  24803453.49041
     -3312.625       -2581.242
  22755473.416 3 -12018108.371 3  -9318303.50042  22755473.20143  22755475.78742
      3002.266        2339.412
  24341074.898 3  -4913377.940 3  -3801260.30641  24341075.11043  24341077.74641
      -918.189        -715.462
  22005479.844 3 -16159928.688 3 -12535605.39542  22005480.18143  22005481.75542
     -2274.448       -1772.322
 04  2  2  1 56  0.0000000  0 11G31G13G 8G21G29G26G10G17G28G 3G27
  23650340.040 3  -3980765.471 3  -3067929.22542  23650339.73143  23650341.29742
      1421.129        1107.378
  25368726.235 3   -301217.406 3   -175992.97841  25368725.94343  25368728.14041
     -3731.136       -2907.383
  20221919.906 4 -29407977.338 4 -22854738.62542  20221919.45244  20221921.99342
      -304.384        -237.188
  24031472.543 3  -6077678.981 3  -4702004.45742  24031472.13043  24031472.21942
       165.111         128.664
  21577000.774 3 -18204066.086 3 -14135990.49642  21577000.78343  21577002.77842
      2080.214        1620.946
  22106586.783 3 -13837610.473 3 -10726977.39842  22106587.58543  22106588.72142
      2943.738        2293.823
  21727619.138 3 -19337470.820 3 -15018226.77342  21727618.39043  21727621.31642
     -2088.589       -1627.478
  24812911.621 3  -3387710.175 3  -2616433.31341  24812912.56243  24812915.47941
     -3314.982       -2583.082
  22746909.821 3 -12063108.082 3  -9353368.19942  22746909.97743  22746910.78542
      2997.028        2335.345
  24343708.172 3  -4899538.410 3  -3790476.24841  24343708.54543  24343711.68941
      -927.808        -722.976
  22011977.731 3 -16125782.799 3 -12508998.20542  22011977.94543  22011980.20342
     -2278.933       -1775.798
